source_id,formal_name,lat,long,sit_prec,geo_src,lat_long_src_id,name_src,site_cat,hist_affl,state_affl,cultrl_affl_1,cultrl_affl_2,site_sgnf,mil_use,aaas,state_hiu,nga,dia,osm,coder1,coder1_date ,coder2,coder2_date ,apprv,apprv_date ,Notes1,Notes2,KHChanges,Hst 1,Hst 2,Religion,Language,Ethnicity,Governorate,FID_OLD,OBJECTID_OLD,PlyContain,PtContaine,PennContai,cat_code_old
AAASSYR00969,Tell Sheikh Hamad Ruins (Dur Katlimmu),35.6456927498,40.7432009502,,OSM_Polygon,226862712,Penn,Archaeological Site,MD03,,M010,MH11,,,1,,,,,SRW001,31-Aug-2016,,,,, ,1, ,Ancient Mesopotamia - Assyrian,,,Arabic,Arab,,968,969,0,0,1,1
AAASSYR00029,Tell Tuneinir,36.4212346501,40.8672128996,,OSM_Polygon,325782093,OSM_Polygon,Archaeological Site,MD03,,M010,MH11,,,1,,,,1,SRW001,31-Aug-2016,,,,,,1, ,Ancient Mesopotamia – Assyrian,,,Arabic,Arab,,28,29,1,0,0,1
AAASSYR02827,Tell Barri (Kahat),35.6862220001,36.5306810003,,Penn,760SY0112,Penn,Archaeological Site,MD03,,M010,,,,1,,,,,SRW001,31-Aug-2016,,,,,,1, ,Ancient Mesopotamia – Sumerian & Akkadian,,Mesopotamian,Arabic,Arab,,2826,2827,0,0,0,1
AAASSYR00923,Tell Shayukh al-Fawqani (Burmarina) / Jarabulus,36.7875555496,38.0360199498,,OSM_Polygon,188241429,Penn,Archaeological Site,MD03,,M010,,,,1,,,,,SRW001,31-Aug-2016,,,,, ,1, ,Bronze Age,,,Arabic,Arab,,922,923,0,0,1,1
AAASSYR01031,Kharab Jil,36.8290441499,38.4610869013,,OSM_Polygon,326459614,OSM_Polygon,Archaeological Site,MD03,,M010,,,,1,,,,1,SRW001,31-Aug-2016,,,,,,1, ,Bronze Age,,,Arabic,Arab,,1030,1031,0,0,0,1
AAASSYR00850,Halebiye Palmyrene and Byzantine Ruins,35.6894697996,39.8217433499,,OSM_Polygon,143095015,Penn,Archaeological Site,M003,,M010,,,,1,,,,,SRW001,31-Aug-2016,,,,,,1, ,Classical Antiquity,Medieval – Byzantine ,,Arabic,Arab,,849,850,0,1,1,1
AAASSYR00784,Salamiyah Central Mosque and Shrine,35.0110068002,37.0538838999,,OSM_Polygon,334190806,Penn,Religious Site,M003,,M010,,,,1,,,,,SRW001,31-Aug-2016,,,,, ,1, ,Classical Antiquity - Greco Roman,Medieval – Byzantine ,Shia,Arabic,Arab,,783,784,0,0,1,9
AAASSYR03067,Baghuz Erzi Funerary Tower,34.4472579999,40.9773690001,,Penn,760SY0470,Penn,Archaeological Site,M003,,M010,,,,1,,,,,SRW001,31-Aug-2016,,,,,,1, ,Classical Antiquity – Greco-Roman,,,Arabic,Arab,,3066,3067,0,0,0,1
AAASSYR00368,"Um al Zennar-Saint Mary Church of the Holy Belt Church, Homs",34.72917445,36.71978105,,OSM_Polygon,203921367,Penn,Religious Site,M003,,MH11,,,,1,,,,,SRW001,31-Aug-2016,,,,, ,0, ,Classical Antiquity – Greco-Roman (consecrated over the ruins of 50 AD),,Syriac Orthodox Church ,Western Aramaic,,Homs,367,368,0,0,1,9
AAASSYR02959,Kalota Dead City Castle,36.3527329997,36.9363640002,,Penn,760PCHC1413,Penn,Archaeological Site,M003,,M010,,,,1,,,,,SRW001,31-Aug-2016,,,,, ,1, ,Classical Antiquity – Roman,Medieval – Byzantine ,,Arabic,Arab,,2958,2959,0,0,0,1
AAASSYR00815,Ain Diwar Bridge,37.3144582004,42.2157221006,,OSM_Polygon,113861419,Penn,Archaeological Site,M003,,M010,,,,1,,,,,SRW001,31-Aug-2016,,,,, ,1, ,Classical Antiquity – Roman,,,Arabic,Arab,,814,815,0,1,1,1
AAASSYR02920,Meez Dead City,36.145508,36.6671419995,,Penn,760SY0110,Penn,Archaeological Site,M003,,M010,,,,1,,,,,SRW001,31-Aug-2016,,,,,,1, ,Classical Antiquity – Roman,,,Arabic,Arab,,2919,2920,0,0,0,1
AAASSYR03077,Hayyat Roman Town,32.9395559998,36.6549280002,,Penn,760SY0568,Penn,Archaeological Site,M003,,M010,,,,1,,,,,SRW001,31-Aug-2016,,,,,,1, ,Classical Antiquity – Roman,,,Arabic,Arab,,3076,3077,0,0,0,1
AAASSYR03109,Isriya Roman Temple,35.3659568896,37.7859908105,,Penn,760SY0642,Penn,Archaeological Site,M003,,M010,,,,1,,,,,SRW001,31-Aug-2016,,,,,,1, ,Classical Antiquity – Roman,,,Arabic,Arab,,3108,3109,0,0,0,1
AAASSYR03120,Jebel Sheikh Barakat Dead City / Qatura,36.275964,36.8141689996,,Penn,760SY0607,Penn,Archaeological Site,M003,,M010,,,,1,,,,,SRW001,31-Aug-2016,,,,,,1, ,Classical Antiquity – Roman,,,Arabic,Arab,,3119,3120,0,0,0,1
AAASSYR02692,Damascus Hijaz Railway Station Historic Building,33.5112250001,36.2949059997,,Penn,760SY0308,Penn,Historic Structure,M002,,M014,M010,,,1,,,,,SRW001,31-Aug-2016,,,,, ,1, ,Early Modern - Jalili Period,Modern –Ba’thist Republic of Syria ,Islamic (Sunni),Arabic,Arab,,2691,2692,0,0,0,5
AAASSYR00929,Karakozak Tomb of Suleyman Shah (in 2015 Turkey moved this site),36.63878595,38.20750145,,OSM_Polygon,203427241,Penn,Religious Site,M002,,M010,,,,1,,,,,SRW001,31-Aug-2016,,,,, ,1, ,Early Modern - Ottoman Empire,Medieval - Islamic,,Turkish,Turkish,,928,929,0,0,1,9
AAASSYR02668,Hama National Museum,35.1400889995,36.7541439997,,Penn,760SY0012,Penn,Museum,M002,,M010,,,,1,,,,,SRW001,31-Aug-2016,,,,, ,1, ,Early Modern – Jalili Period,Modern - Ba'thist Republic of Syria,Islamic,Arabic,Arab,,2667,2668,0,0,0,8
AAASSYR00119,Al Atassi Mosque,34.7232708498,36.7120243999,,OSM_Polygon,150145663,OSM_Polygon,Religious Site,M002,,M010,,,,1,,,,1,SRW001,31-Aug-2016,,,,, ,1, ,Early Modern – Jalili Period ,,Islam ,Arabic,Arab,,118,119,0,0,0,9
AAASSYR01532,Aleppo al-Sahibiye (al-Fustuq) Madrasa and Mosque,36.1996854001,37.1585323002,,OSM_Points,1839847706,OSM_Points,Religious Site,M002,,M010,,,,1,,,,1,SRW001,31-Aug-2016,,,,, ,1, ,Early Modern – Ottoman Empire,Medieval – Islamic – Mamluks,Islamic,Arabic,Arab,,1531,1532,0,0,1,9
AAASSYR02709,Damascus Mosque al-Mu'allaq and Madrasa Sibaiye/ Darwishieh Mosque,33.5084719997,36.3010189996,,Penn,760PCHC935,Penn,Religious Site,M002,,M010,,,,1,,,,,SRW001,31-Aug-2016,,,,, ,1, ,Early Modern – Ottoman Empire,Modern –Ba’thist Republic of Syria,Islamic,Arabic,Arab,,2708,2709,0,0,0,9
AAASSYR00229,Aleppo Mosque al-Bahramiya,36.19821625,37.1546458,,OSM_Polygon,203436263,Penn,Religious Site,M002,,M010,,,,1,,,,,SRW001,31-Aug-2016,,,,, ,0, ,Early Modern – Ottoman Empire,,Islam,Arabic,Arab,Aleppo,228,229,0,0,1,9
AAASSYR00632,Abo Baker,36.4114986996,37.5807016998,,OSM_Polygon,207088570,OSM_Polygon,Religious Site,M002,,M016,,,,1,,,,1,SRW001,31-Aug-2016,,,,, ,1, ,Early Modern – Ottoman Empire,,Sufi,Arabic,Arab,,631,632,0,0,0,9
AAASSYR00224,Aleppo Zawiya al-Hilaliya (Hilaliyya Zaiya),36.19631,37.1543374,,OSM_Polygon,203435709,Penn,Religious Site,M002,,M016,,,,1,,,,,SRW001,31-Aug-2016,,,,, ,0, ,Early Modern – Ottoman Empire,,Sufi,Arabic/Kurdish?,Arab /Kurds?,Aleppo,223,224,0,0,1,9
AAASSYR00012,Al Huda Masjed,36.1932805998,37.1233799001,,OSM_Polygon,203515201,OSM_Polygon,Religious Site,MD02,,M014,,,,1,,,,1,SRW001,31-Aug-2016,,,,,,1, ,Early Modern – Ottoman Empire,,Sunni,Arabic,Arab,Aleppo,11,12,1,0,0,9
AAASSYR03177,Damascus Mausoleum Dubajiye,33.5310919999,36.2896469995,,Penn,760PCHC950,Penn,Monument,M002,,M014,,,,1,,,,,SRW001,31-Aug-2016,,,,, ,1, ,Early Modern – Ottoman Empire,,Sunni,Arabic,Arab,,3176,3177,0,0,0,7
AAASSYR03179,Damascus Mausoleum Darwish Pasha,33.5092309998,36.3005750003,,Penn,760PCHC949,Penn,Monument,M002,,M014,,,,1,,,,,SRW001,31-Aug-2016,,,,, ,1, ,Early Modern – Ottoman Empire,,Sunni,Arabic,Arab,,3178,3179,0,0,0,7
AAASSYR00239,Aleppo Mosque al-Adliyeh,36.19749625,37.157808,,OSM_Polygon,203467552,Penn,Religious Site,M002,,M015,,,,1,,,,,SRW001,31-Aug-2016,,,,, ,0, ,Early Modern-Ottoman Empire,16th century,Shii?,Arabic,Arab,Aleppo,238,239,0,0,1,9
AAASSYR00234,"Zaki Pasha Mosque, Aleppo",36.20473955,37.14021045,,OSM_Polygon,203462090,OSM_Polygon,Religious Site,M002,,M010,,,,1,,,,1,SRW001,31-Aug-2016,,,,, ,0, ,Early Modern-Ottoman Empire,"Ottoman Empire, 1898",Islam,Arabic,Arab,Aleppo,233,234,0,0,0,9
AAASSYR00694,Aleppo National Museum,36.2034368,37.1503096997,,OSM_Polygon,233417170,Penn,Museum,M002,,M010,,,,1,,,,,SRW001,31-Aug-2016,,,,, ,1, ,Iron Age - Ba'thist Republic of Syria,Modern - Ba'thist Repuplic of Syria,,Arabic,Arab,,693,694,0,0,1,8
AAASSYR02637,Damascus House of the Spanish Crown (Sarkis Palace),33.5114470003,36.3155059999,,Penn,760SY0371,Penn,Historic Structure,M002,,MD09,,,,1,,,,,SRW001,31-Aug-2016,,,,, ,1, ,Late Ottoman,Modern – Mandate Period,Syriac Catholic Church,Western Aramaic,Assyrian,,2636,2637,0,0,0,5
AAASSYR02841,Babisqa Dead City,36.2144919997,36.6899720002,,Penn,760SY0418,Penn,Archaeological Site,M003,,M010,,,,1,,,,,SRW001,31-Aug-2016,,,,,,1, ,Medieval - Byzantine,Modern –Ba’thist Republic of Syria,Islamic,Arabic,Arab,,2840,2841,0,0,0,1
AAASSYR02910,Sarjebleh Dead City,36.2397389999,36.7168390002,,Penn,760SY0133,Penn,Archaeological Site,M003,,M010,,,,1,,,,,SRW001,31-Aug-2016,,,,,,1, ,Medieval - Byzantine,Modern –Ba’thist Republic of Syria,Islamic,Arabic,Arab,,2909,2910,0,0,0,1
AAASSYR03005,Serjilla Dead City,35.6555940003,36.5262859998,,Penn,760PCHC1597,Penn,Archaeological Site,M003,,M010,,,,1,,,,,SRW001,31-Aug-2016,,,,,,1, ,Medieval - Byzantine,Modern –Ba’thist Republic of Syria,Islamic,Arabic,Arab,,3004,3005,0,0,0,1
AAASSYR02863,Sarfud Dead City,36.1911190004,36.6863080004,,Penn,760SY0141,Penn,Archaeological Site,M003,,M010,,,,1,,,,,SRW001,31-Aug-2016,,,,,,1, ,Medieval - Byzantine,,Islamic,Arabic,Arab,,2862,2863,0,0,0,1
AAASSYR00909,(english) Cathedral of St. Simeon the Stylite,36.3329177004,36.84366795,,OSM_Polygon,173166964,OSM_Polygon,Archaeological Site,M003,,MH11,,,,1,,,,1,SRW001,31-Aug-2016,,,,,,1, ,Medieval - Christian,,Christian: Syriac Orthodox Church,Syriac,Assyrian,,908,909,0,0,0,1
AAASSYR00811,Homs Citadel and Castle,34.7234329502,36.7144642505,,OSM_Polygon,105776501,Penn,Archaeological Site,M004,,M015,,,,1,,,,,SRW001,31-Aug-2016,,,,,,1, ,Medieval - Islamic - Ayyubid,Bronze Age,Shia,Arabic,Arab,,810,811,0,0,1,1
AAASSYR00238,Aleppo Mosque al-Haddadin,36.2042462498,37.1676358497,,OSM_Polygon,203466290,Penn,Religious Site,M004,,M014,,,,1,,,,,SRW001,31-Aug-2016,,,,, ,1, ,Medieval - Islamic - Mamluk,,Islam (my guess is Sunni - Rim will know for certain),Arabic,Arab,Aleppo,237,238,0,0,1,9
AAASSYR00897, ,33.4660265998,36.4816286001,,OSM_Polygon,166333145,OSM_Polygon,Cultural Center,M002,,M010,,,,1,,,,1,SRW001,31-Aug-2016,,,,, ,1, ,Medieval - Ottoman,,Levantine,Arabic,Arab,,896,897,0,0,0,4
AAASSYR02926,Lubben Byzantine Ruins,32.919433,36.3939190004,,Penn,760PCHC1112,Penn,Archaeological Site,M003,,MD06,,,,1,,,,,SRW001,31-Aug-2016,,,,, ,1, ,Medieval – Byzantine ,,Druze,Arabic,Arab,,2925,2926,0,0,0,1
AAASSYR03152,Tartus Ancient City Walls,34.892439,35.8766000002,,Penn,760SY0090,Penn,Archaeological Site,M003,,M010,,,,1,,,,,SRW001,31-Aug-2016,,,,,,1, ,Medieval – Christian,,,Arabic,Arab,,3151,3152,0,1,0,1
AAASSYR03013,Maarat al-Numan Minaret,35.6500719999,36.6777359998,,Penn,760PCHC1115,Penn,Religious Site,M003,,M010,,,,1,,,,,SRW001,31-Aug-2016,,,,, ,1, ,Medieval – Crusades,Modern –Ba’thist Republic of Syria,Islamic,Arabic,Arab,,3012,3013,0,0,0,9
AAASSYR00227,Aleppo Mashhad al-Hussein,36.19533395,37.13292915,,OSM_Polygon,203435797,Penn,Religious Site,M003,,M014,,,,1,,,,,SRW001,31-Aug-2016,,,,, ,0, ,Medieval – Crusades,,Sunni,Arabic,Arab,Aleppo,226,227,0,0,1,9
AAASSYR00174,Lady Nafisa Mosque,36.1963218004,37.1071590005,,OSM_Polygon,174884432,OSM_Polygon,Religious Site,M004,,M015,,,,1,,,,1,SRW001,31-Aug-2016,,,,, ,1, ,Medieval – Islamic,,Shia,Arabic,Arab,,173,174,0,0,0,9
AAASSYR00249,(mosque al mubashshirin bialjann) جامع المبشرين بالجنة ,36.2031044504,37.1274846498,,OSM_Polygon,203512036,OSM_Polygon,Religious Site,M004,,M014,,,,1,,,,1,SRW001,31-Aug-2016,,,,, ,1, ,Medieval – Islamic,,Sunni,Arabic,Arab,,248,249,0,0,0,9
AAASSYR02742,Aleppo Suq Saqatiya,36.1987470004,37.1563220001,,Penn,760PCHC808,Penn,Historic Structure,M004,,M010,,,,1,,,,,SRW001,31-Aug-2016,,,,,,1, ,"Medieval – Islamic
Mamluks ",Modern –Ba’thist,Islamic,Arabic,Arab,,2741,2742,0,0,0,5
AAASSYR02639,Damascus Hammam al-Bakri,33.512767,36.3134669998,,Penn,760SY0349,Penn,Historic Structure,M004,,M010,,,,1,,,,,SRW001,31-Aug-2016,,,,, ,1, ,"Medieval – Islamic
Mamluks ",Modern –Ba’thist Republic of Syria ,Islamic,Arabic,Arab,,2638,2639,0,0,0,5
AAASSYR02616,Damascus Mausoleum Turba Takritiye (Madrasa Tabutluk),33.5275139997,36.2849690003,,Penn,760PCHC978,Penn,Monument,M004,,M010,,,,1,,,,,SRW001,31-Aug-2016,,,,, ,1, ,"Medieval – Islamic
Mamluks ",,Islamic,Arabic,Arab,,2615,2616,0,0,0,7
AAASSYR02784,Qal'at al-Khawabi,34.9729139999,36.0023079995,,Penn,760SY0091,Penn,Archaeological Site,M004,,M014,,,,1,,,,,SRW001,31-Aug-2016,,,,,,1, ,"Medieval – Islamic –
Mamluks",Modern –Ba’this,"Islamic (Sunni, but majority Shia until c. 1920) )",Arabic,Arab,,2783,2784,0,0,0,1
AAASSYR02771,Aleppo Suq Karamash,36.1990390003,37.1590310005,,Penn,760PCHC795,Penn,Historic Structure,M004,,M010,,,,1,,,,,SRW001,31-Aug-2016,,,,,,1, ,"Medieval – Islamic –
Mamluks ",Modern –Ba’thist,Islamic,Arabic,Arab,,2770,2771,0,0,0,5
AAASSYR00264,"Wahshi & Thoban Mosque (ثوبان), Aleppo",36.2165897,37.1675829,,OSM_Polygon,203569197,OSM_Polygon,Religious Site,M004,,M010,,,,1,,,,1,SRW001,31-Aug-2016,,,,, ,0, ,"Medieval – Islamic –
Mamluks 
",,Islam,Arabic,Arab,Aleppo,263,264,0,0,0,9
AAASSYR00277,"Ibrahim Khalil Mosque, Aleppo",36.2075148,37.18679675,,OSM_Polygon,203617359,OSM_Polygon,Religious Site,M004,,M010,,,,1,,,,1,SRW001,31-Aug-2016,,,,, ,0, ,"Medieval – Islamic –
Nizaris
",,Islam,Arabic,Arab,,276,277,0,0,0,9
AAASSYR00001,Damascus Dahdah Cemetery / eلبية (Alwa Aleppo),33.51741535,36.30550025,,OSM_Polygon,26773979,Penn,Cemetery,M004,0,M016,M010,2,0,1,,,,,SRW001,31-Aug-2016,,,,, ,0, ,Medieval – Islamic – Abbasid ,,Sufi,Arabic,Arab,Damascus,0,1,1,0,1,3
AAASSYR00222,"Al-Asfar Mosque, Aleppo",36.19632725,37.1554762,,OSM_Polygon,203435704,OSM_Polygon,Religious Site,M004,,M010,,,,1,,,,1,SRW001,31-Aug-2016,,,,, ,0, ,Medieval – Islamic – Mamluks,,Islam,Arabic,Arab,,221,222,0,0,0,9
AAASSYR03069,Inat Ayyubid Cistern,32.351814,36.807297,,Penn,760PCHC1093,Penn,Archaeological Site,M004,,M010,,,,1,,,,,SRW001,31-Aug-2016,,,,,,1, ,Medieval – Islamic – Mamluks,,Islam,Arabic,Arab,,3068,3069,0,0,0,1
AAASSYR00206,Aleppo al-Firdaws Madrasa and Mosque,36.1864641,37.1554283998,,OSM_Polygon,203389513,Penn,Religious Site,M004,,M014,,,,1,,,,,SRW001,31-Aug-2016,,,,, ,2, ,Medieval – Islamic –Ayyubids,,Sunni,Arabic,Arab,,205,206,0,0,1,9
AAASSYR00341,"Al-Rumi Mosque, Aleppo",36.1953316,37.1572068,,OSM_Polygon,203752743,Penn,Religious Site,M004,,M010,,,,1,,,,,SRW001,31-Aug-2016,,,,, ,0, ,Medieval – Islamic –Mamluks,,Islam,Arabic,Arab,Aleppo,340,341,0,0,1,9
AAASSYR01617,Aleppo Armenian Church of the 40 Martyrs,36.2077602,37.1550363003,,OSM_Points,2430028380,OSM_Points,Religious Site,M004,,RJ03,,,,1,,,,1,SRW001,31-Aug-2016,,,,, ,1, ,Medieval – Mamluks,,Armenian Catholic Church,Armenian,Armenian,,1616,1617,0,0,1,9
AAASSYR02459,Aleppo Mosque al-Midani,36.206650247,37.1633409232,,Penn,760PCHC748,Penn,Religious Site,M004,,M010,,,,1,,,,,SRW001,31-Aug-2016,,,,, ,1, ,Medieval – Mamluks,,Islam,Arabic,Arab,,2458,2459,0,0,0,9
AAASSYR00703,Holy Cross Church,36.2123978001,37.155326,,OSM_Polygon,234937578,OSM_Polygon,Religious Site,MD01,,RJ03,,,,1,,,,1,SRW001,31-Aug-2016,,,,, ,1, ,Modern,,Armenian Catholic Church,Armenian,Armenian,,702,703,0,0,0,9
AAASSYR00245,"Imam Shafi'I Mosque, Aleppo (الامام الشافعي)",36.22448425,37.13401895,,OSM_Polygon,203500092,OSM_Polygon,Religious Site,MD01,,M010,,,,1,,,,1,SRW001,31-Aug-2016,,,,, ,0, ,Modern,,Islam,Arabic,Arab,Aleppo,244,245,0,0,0,9
AAASSYR00246,"Sheikh Taha Mosque, Aleppo (جامع الشيخ طه)",36.2169307,37.1525907,,OSM_Polygon,203504518,OSM_Polygon,Religious Site,MD01,,M010,,,,1,,,,1,SRW001,31-Aug-2016,,,,, ,0, ,Modern,,Islam,Arabic,Arab,Aleppo,245,246,0,0,0,9
AAASSYR00260,"Al Maydan Mosque (Shabarek mosque), Aleppo",36.21903845,37.1648847,,OSM_Polygon,203552955,OSM_Polygon,Religious Site,MD01,,M010,,,,1,,,,1,SRW001,31-Aug-2016,,,,, ,0, ,Modern,,Islam,Arabic,Arab,Aleppo,259,260,0,0,0,9
AAASSYR00320,"Great Mosque of Sheikh Maksoud, Aleppo",36.22903785,37.15897945,,OSM_Polygon,203688833,OSM_Polygon,Religious Site,MD01,,M010,,,,1,,,,1,SRW001,31-Aug-2016,,,,, ,0, ,Modern,,Islam,Arabic,Arab,Aleppo,319,320,0,0,0,9
AAASSYR00244,"Sa'ad ibn Waqqas Mosque, Aleppo (جامع سعد بن وقاص)",36.22313195,37.1478075,,OSM_Polygon,203500088,OSM_Polygon,Religious Site,MD01,,M014,,,,1,,,,1,SRW001,31-Aug-2016,,,,, ,0, ,Modern,,Islam (my guess is Sunni),Arabic,Arab,Aleppo,243,244,0,0,0,9
AAASSYR00285,Taqwa Mosque,36.1835464498,37.1291757001,,OSM_Polygon,203625198,OSM_Polygon,Religious Site,MD01,,M014,,,,1,,,,1,SRW001,31-Aug-2016,,,,, ,1, ,Modern,,Sunni,Arabic,Arab,,284,285,0,0,0,9
AAASSYR00295,"Abo Bakr Mosque, Hamadineyeh  (الإباء)",36.1824554501,37.1098799495,,OSM_Polygon,203631812,OSM_Polygon,Religious Site,MD01,,M014,,,,1,,,,1,SRW001,31-Aug-2016,,,,, ,1, ,Modern,,Sunni,Arabic,Arab,,294,295,0,0,0,9
AAASSYR00333,"(Mosque, Aleppo)",36.2479781499,37.0883212001,,OSM_Polygon,203733931,OSM_Polygon,Religious Site,MD01,,M014,,,,1,,,,1,SRW001,31-Aug-2016,,,,, ,1, ,Modern,,Sunni,Arabic,Arab,Aleppo,332,333,0,0,0,9
AAASSYR00335,"(Mosque, Aleppo)",36.2523659499,37.0857140996,,OSM_Polygon,203733934,OSM_Polygon,Religious Site,MD01,,M014,,,,1,,,,1,SRW001,31-Aug-2016,,,,, ,1, ,Modern,,Sunni,Arabic,Arab,Aleppo,334,335,0,0,0,9
AAASSYR00363,(Mosque Sincerity) مسجد الإخلاص,34.7216910002,36.7082517999,,OSM_Polygon,203864730,OSM_Polygon,Religious Site,MD01,,M014,,,,1,,,,1,SRW001,31-Aug-2016,,,,, ,1, ,Modern,,Sunni,Arabic,Arab,,362,363,0,0,0,9
AAASSYR00378,"Abu Huraira Mosque, Homs",34.7031134999,36.7105808503,,OSM_Polygon,203929492,OSM_Polygon,Religious Site,MD01,,M014,,,,1,,,,1,SRW001,31-Aug-2016,,,,, ,1, ,Modern,,Sunni,Arabic,Arab,Homs,377,378,0,0,0,9
AAASSYR00411,Gazwet Badr Mosque ,33.5334154499,36.3235611503,,OSM_Polygon,204167949,OSM_Polygon,Religious Site,MD01,,M014,,,,1,,,,1,SRW001,31-Aug-2016,,,,, ,1, ,Modern,,Sunni,Arabic,Arab,,410,411,0,0,0,9
AAASSYR00420,مسجد زملكا الكببير Zamalka Kabber mosque,33.5260741499,36.3563141501,,OSM_Polygon,204284482,OSM_Polygon,Religious Site,MD01,,M014,,,,1,,,,1,SRW001,31-Aug-2016,,,,, ,1, ,Modern,,Sunni,Arabic,Arab,,419,420,0,1,0,9
AAASSYR00442,Huda Mosque,33.5030868,36.3282401501,,OSM_Polygon,204405317,OSM_Polygon,Religious Site,MD01,,M014,,,,1,,,,1,SRW001,31-Aug-2016,,,,, ,1, ,Modern,,Sunni,Arabic,Arab,,441,442,0,0,0,9
AAASSYR00501,Qmenas Mosque ,35.8857955502,36.6769166505,,OSM_Polygon,204595244,OSM_Polygon,Religious Site,MD01,,M014,,,,1,,,,1,SRW001,31-Aug-2016,,,,,,1, ,Modern,,Sunni,Arabic,Arab,,500,501,0,0,0,9
AAASSYR00506,جامع المصطفى Mustafa Mosque,35.9308568002,36.6437469001,,OSM_Polygon,204661241,OSM_Polygon,Religious Site,MD01,,M014,,,,1,,,,1,SRW001,31-Aug-2016,,,,, ,1, ,Modern,,Sunni,Arabic,Arab,,505,506,0,0,0,9
AAASSYR00566,Al Rawdah Cemetery,35.5155526504,35.8078434002,,OSM_Polygon,205077767,OSM_Polygon,Cemetery,MD01,,M014,,,,1,,,,1,SRW001,31-Aug-2016,,,,,,1, ,Modern,,Sunni,Arabic,Arab,,565,566,0,0,0,3
AAASSYR00110,Imtan Modern Cemetery,32.40788315,36.824139751,,OSM_Polygon,145080016,OSM_Polygon,Cemetery,MD01,,M010,,,,1,,,,1,SRW001,31-Aug-2016,,,,, ,0, ,Modern,,,,,,109,110,0,0,0,3
AAASSYR01111,Aleppo Bab al-Hadid Gate,36.2033462002,37.1672860003,,OSM_Points,540422105,OSM_Points,Historic Structure,MD01,,M014,,,,1,,,,1,SRW001,31-Aug-2016,,,,, ,1, ,Modern - Ba'athist Republic of Syria,Medieval - Islamic Nizaris,Islam: Sunni,Arabic,Arab,,1110,1111,0,0,1,5
AAASSYR01075,Bosra al-Omari Mosque,32.5214911004,36.4829738003,,OSM_Points,330779595,OSM_Points,Religious Site,MD01,,MD06,,,,1,,,,1,SRW001,31-Aug-2016,,,,,,1, ,Modern - Ba'athist Republic of Syria,Medieval - Islamic Umayyad,Islam: Druze,Arabic,Arab,,1074,1075,0,0,1,9
AAASSYR01058,Jami Al-Huda (Damascus - Mezzeh),33.4988381997,36.2428489005,,OSM_Points,321322434,OSM_Points,Religious Site,MD01,,MD07,,,,1,,,,1,SRW001,31-Aug-2016,,,,, ,1, ,Modern - Ba'athist Republic of Syria,,Islam: Alawi(?),Arabic,Arab,,1057,1058,0,0,0,9
AAASSYR01330,Latakia Yassin Mosque,35.5193852004,35.7944803998,,OSM_Points,968624490,OSM_Points,Religious Site,MD01,,MD07,,,,1,,,,1,SRW001,31-Aug-2016,,,,,,1, ,Modern - Ba'athist Republic of Syria,,Islam: Alawi(?),Arabic,Arab,,1329,1330,0,0,0,9
AAASSYR01033,Seven Bahrat Roundabout,36.5222298001,37.9321533,,OSM_Polygon,329302795,OSM_Polygon,Monument,MD01,,M014,,,,1,,,,1,SRW001,31-Aug-2016,,,,, ,1, ,Modern - Ba'athist Republic of Syria,,Islam: Sunni,Arabic,Arab,,1032,1033,0,0,0,7
AAASSYR01414,Jāmi‘ al Īmān (Al-Iman Mosque - Damascus),33.5233286998,36.2998591,,OSM_Points,1336756462,OSM_Points,Religious Site,MD01,,M014,,,,1,,,,1,SRW001,31-Aug-2016,,,,, ,1, ,Modern - Ba'athist Republic of Syria,,Islam: Sunni,Arabic,Arab,,1413,1414,0,0,0,9
AAASSYR01472,Jāmi‘ Sayyidunā Zakarīyā (Mosque of the Prophet Zakariya - Damascus),33.4846063998,36.3073190002,,OSM_Points,1670264323,OSM_Points,Religious Site,MD01,,M014,,,,1,,,,1,SRW001,31-Aug-2016,,,,, ,1, ,Modern - Ba'athist Republic of Syria,,Islam: Sunni,Arabic,Arab,,1471,1472,0,0,0,9
AAASSYR02594,Jabal Rawdu (archaeology site is to the NW - coordinates are off) - Paleolithic,35.5627618493,35.8589847094,,Penn,760DGAM2047,Penn,Archaeological Site,MD01,,MD07,,,,1,,,,,SRW001,31-Aug-2016,,,,,,1, ,Modern - Ba'thist Republic of Syria,Ancient - Paleolithic,Islam: Alawi,Arabic,Arab,,2593,2594,0,0,0,1
AAASSYR01959,Tell Mardikh (Ebla),35.7970712088,36.7982740908,,OSM_Points,572541010,OSM_Points,Archaeological Site,MD01,,M014,,,,1,,,,1,SRW001,31-Aug-2016,,,,,,1,4 - Location Changed - Metro Changes,Modern - Ba'thist Republic of Syria,Ancient Mesopotamia - Bronze Age,Islam: Sunni,Arabic,Arab,,1958,1959,0,0,0,1
AAASSYR02508,Damascus Roman Tetrapylon Gateway to Temple Peribolos,33.5100420001,36.3051779997,,Penn,760SY0425,Penn,Archaeological Site,MD01,,M014,,,,1,,,,,SRW001,31-Aug-2016,,,,, ,1, ,Modern - Ba'thist Republic of Syria,Classical Antiquity - Roman,Islam: Sunni,Arabic,Arab,,2507,2508,0,0,0,1
AAASSYR02403,Damascus Khan al-Haramein,33.5109749997,36.3053750001,,Penn,760SY0726,Penn,Historic Structure,MD01,,M014,,,,1,,,,,SRW001,31-Aug-2016,,,,, ,1, ,Modern - Ba'thist Republic of Syria,Early Modern - Ottoman Empire,Islam: Sunni,Arabic,Arab,,2402,2403,0,0,0,5
AAASSYR02587,Damascus Zawiya Saad al-Din al-Jabawi,33.4885970003,36.294953,,Penn,760PCHC1040,Penn,Religious Site,MD01,,M014,,,,1,,,,,SRW001,31-Aug-2016,,,,, ,1, ,Modern - Ba'thist Republic of Syria,Early Modern - Ottoman Empire,Islam: Sunni,Arabic,Arab,,2586,2587,0,0,0,9
AAASSYR01335,Jāmi‘ Şūfān (Soufan Mosque - Latakia),35.5192042,35.7795057998,,OSM_Points,969036257,OSM_Points,Religious Site,MD01,,MD07,,,,1,,,,1,SRW001,31-Aug-2016,,,,,,1, ,Modern - Ba'thist Republic of Syria,Early Modern - Ottoman Empire (mid 1800's),Islam: Alawi(?),Arabic,Arab,,1334,1335,0,0,0,9
AAASSYR02203,Daraa Tell el-Ash'ari,32.6066709822,36.2462237643,,OSM_Points,573511228,OSM_Points,Archaeological Site,MD01,,MD06,,,,1,,,,1,SRW001,31-Aug-2016,,,,,,1,4 - Location Changed - Metro Changes,Modern - Ba'thist Republic of Syria,Medieval - Byzantine,Islam: Druze,Arabic,Arab,,2202,2203,0,0,0,1
AAASSYR01403,Khabab Cathedral of Our Lady of Dormition ,33.0122435348,36.2789088724,,OSM_Points,1296448335,OSM_Points,Religious Site,MD01,,MD09,,,,1,,,,1,SRW001,31-Aug-2016,,,,,,1,4 - Location Changed - Metro OK,Modern - Ba'thist Republic of Syria,Medieval - Christian,Christian - Greek Catholic (Melkite),Arabic,Arab,,1402,1403,0,0,0,9
AAASSYR02497,Damascus Khan Jaqmaq 1,33.5088940004,36.3049860001,,Penn,760PCHC340,Penn,Historic Structure,MD01,,M014,,,,1,,,,,SRW001,31-Aug-2016,,,,, ,1, ,Modern - Ba'thist Republic of Syria,Medieval - Islamic - Mamluks,Islam: Sunni,Arabic,Arab,,2496,2497,0,0,0,5
AAASSYR01552,Latakia Al-Hussein Mosque,35.5062163999,35.7756807004,,OSM_Points,2054197452,OSM_Points,Religious Site,MD01,,M010,,,,1,,,,1,SRW001,31-Aug-2016,,,,,,1, ,Modern - Ba'thist Republic of Syria,,Islam,Arabic,Arab,,1551,1552,0,0,0,9
AAASSYR01553,Latakia Obada Ibn Alsamet Mosque,35.5184341,35.7811738995,,OSM_Points,2054197453,OSM_Points,Religious Site,MD01,,M010,,,,1,,,,1,SRW001,31-Aug-2016,,,,,,1, ,Modern - Ba'thist Republic of Syria,,Islam,Arabic,Arab,,1552,1553,0,0,0,9
AAASSYR01870,Wadi El-A'Waj,35.414439358,36.5024506252,,OSM_Points,572533035,OSM_Points,Archaeological Site,MD01,,MD07,,,,1,,,,1,SRW001,31-Aug-2016,,,,,,1,4 - Location Changed - Metro Changes,Modern - Ba'thist Republic of Syria,,Islam: Alawi,Arabic,Arab,,1869,1870,0,0,0,1
AAASSYR01519,Ø¬Ø§Ù…Ø¹ Ø§Ù„Ø¶Ø§Ø­ÙŠØ©,33.5824656856,36.361746252,,OSM_Points,1827089390,OSM_Points,Religious Site,MD01,,MD07,,,,1,,,,1,SRW001,31-Aug-2016,,,,, ,1,4 - Location Changed - Metro OK,Modern - Ba'thist Republic of Syria,,Islam: Alawi(?),Arabic,Arab,,1518,1519,0,0,0,9
AAASSYR01597,Al-Hadi Mosque (Aleppo region),36.2292893999,37.0105709995,,OSM_Points,2207769155,OSM_Points,Religious Site,MD01,,M014,,,,1,,,,1,SRW001,31-Aug-2016,,,,,,1, ,Modern - Ba'thist Republic of Syria,,Islam: Sunni,Arabic,Arab,,1596,1597,0,0,0,9
AAASSYR01625,"Aleppo Grand Mosque, Kafr Nabl",35.6133315003,36.5619952,,OSM_Points,2605210340,OSM_Points,Religious Site,MD01,,M014,,,,1,,,,1,SRW001,31-Aug-2016,,,,,,1, ,Modern - Ba'thist Republic of Syria,,Islam: Sunni,Arabic,Arab,,1624,1625,0,0,0,9
AAASSYR01656,Mosque - Kafr Batna (Damascus),33.5125922003,36.3790147996,,OSM_Points,3262147396,OSM_Points,Religious Site,MD01,,M014,,,,1,,,,1,SRW001,31-Aug-2016,,,,, ,1, ,Modern - Ba'thist Republic of Syria,,Islam: Sunni,Arabic,Arab,,1655,1656,0,0,0,9
AAASSYR02170,Maqbarat al Halaf,34.805997794,40.7490724377,,OSM_Points,573457542,OSM_Points,Cemetery,MD01,,M014,,,,1,,,,1,SRW001,31-Aug-2016,,,,,,1, ,Modern - Ba'thist Republic of Syria,,Islam: Sunni,Arabic,Arab,,2169,2170,0,0,0,3
AAASSYR02232,Qasr as Shabak (Damascus region),33.2224883423,36.7853987941,,OSM_Points,573515020,OSM_Points,Archaeological Site,MD01,,M014,,,,1,,,,1,SRW001,31-Aug-2016,,,,,,1,4 - Location Changed - Metro Changes,Modern - Ba'thist Republic of Syria,,Islam: Sunni,Arabic,Arab,,2231,2232,0,0,0,1
AAASSYR02605,Duma Public Library,33.5717169997,36.3964830003,,Penn,760PCHC462,Penn,Library,MD01,,M014,,,,1,,,,,SRW001,31-Aug-2016,,,,, ,1, ,Modern - Ba'thist Republic of Syria,,Islam: Sunni,Arabic,Arab,,2604,2605,0,0,0,6
AAASSYR02563,Hasakah Jabal Abd Al-Aziz Park,36.4237000004,40.3190000002,,Penn,760DGAM2021,Penn,Other,MD01,,M014,,,,1,,,,,SRW001,31-Aug-2016,,,,,,1,No Changes,Modern - Ba'thist Republic of Syria,,Islam: Sunni,Kurdish,Kurds,,2562,2563,0,0,0,10
AAASSYR02273,Khirbat Dabak,34.3761553501,36.9129243435,,OSM_Points,573522423,OSM_Points,Archaeological Site,MD01,,M014,,,,1,,,,1,SRW001,31-Aug-2016,,,,,,1,4 - Location Changed - Metro Changes,Modern - Ba'thist Republic of Syria,,Islam:Sunni,Arabic,Arab,,2272,2273,0,0,0,1
AAASSYR01370,Damascus Mosque and Mausoleum of Sayyidah Ruqayya,33.5133036004,36.3070307004,,OSM_Points,1186900076,OSM_Points,Religious Site,MD01,,M015,,,,1,,,,1,SRW001,31-Aug-2016,,,,, ,1, ,Modern - Ba'thist Republic of Syria - Iranian,Medieval - Islamic - Umayad,Islam: Shi'i,Arabic,Arab,,1369,1370,0,0,1,9
AAASSYR00795,Franciscan School Aleppo,36.2136615496,37.1372041001,,OSM_Polygon,43140755,OSM_Polygon,Religious Site,MD01,,MD09,,,,1,,,,1,SRW001,31-Aug-2016,,,,, ,1, ,Modern – Mandate Period,,Christian - Roman Catholic,Arabic,Arab,,794,795,0,0,0,9
AAASSYR00161,Al-Sahabeh Mosque,33.5421434998,36.2161232,,OSM_Polygon,171455069,OSM_Polygon,Religious Site,MD01,,M014,,,,1,,,,1,SRW001,31-Aug-2016,,,,, ,1, ,Modern – Syrian Republic ,,Sunni,Arabic,Arab,,160,161,0,0,0,9
AAASSYR00417, مسجد البشير(Bashir Ibrahimi Mosque),33.5406196004,36.3628619999,,OSM_Polygon,204275819,OSM_Polygon,Religious Site,MD01,,M014,,,,1,,,,1,SRW001,31-Aug-2016,,,,, ,1, ,Modern – Syrian Republic ,,Sunni,Arabic,Arab,,416,417,0,0,0,9
AAASSYR00243,"Greek Catholic Church of Saint Teraiza, Aleppo",36.2202166,37.146858151,,OSM_Polygon,203500083,OSM_Polygon,Religious Site,MD01,,MD09,,,,1,,,,1,SRW001,31-Aug-2016,,,,, ,0, ,Modern –Ba’thist Republic of Syria ,1995,Greek Catholic ,Arabic,Arab,Aleppo,242,243,0,0,0,9
AAASSYR00383,"Church of Saints Peter and Paul, Homs",34.74463595,36.6808704,,OSM_Polygon,203971312,OSM_Polygon,Religious Site,MD01,,MD09,,,,1,,,,1,SRW001,31-Aug-2016,,,,, ,0, ,Modern –Ba’thist Republic of Syria ,,Greek Orthodox,Arabic,Arab,Homs,382,383,0,0,0,9
AAASSYR00109,Ezraa Church of St. George/ Basilica of St. George,32.8732714,36.2567292,,OSM_Polygon,143736982,Penn,Religious Site,,,MD09,,,,1,,,,,SRW001,31-Aug-2016,,,,, ,0, ,,,Christian-- Greek Orthodox,,,,108,109,0,0,1,9
AAASSYR00101,Al Kafr Cemetery,32.6298838,36.65872795,,OSM_Polygon,118880966,OSM_Polygon,Cemetery,,,MD06,,,,1,,,,1,SRW001,31-Aug-2016,,,,, ,0, ,,,Druze,Arabic,Druze,,100,101,0,0,0,3
AAASSYR00372,"Church of Lady of Peace, Homs",34.7276998497,36.7190965496,,OSM_Polygon,203921389,OSM_Polygon,Religious Site,,,MD09,,,,1,,,,1,SRW001,31-Aug-2016,,,,, ,2, ,,,Greek Catholic ,Arabic,Arab,Homs,371,372,0,0,0,9
AAASSYR00134,Tal Al Naser Cemetery,34.7769119004,36.7393698008,,OSM_Polygon,150493319,OSM_Polygon,Cemetery,,,M010,,,,1,,,,1,SRW001,31-Aug-2016,,,,, ,1, ,,,Islam,Arabic,Arab,,133,134,0,0,0,3
AAASSYR00200,"Zaid bin Haritha Mosque, Bab al-Nayrab, Aleppo",36.1779078001,37.1675659498,,OSM_Polygon,203377181,OSM_Polygon,Religious Site,,,M010,,,,1,,,,1,SRW001,31-Aug-2016,,,,, ,2, ,,,Islam,Arabic,Arab,Aleppo,199,200,0,0,0,9
AAASSYR00201,"Mosque, al-Mastumah",35.8744865496,36.6315563502,,OSM_Polygon,203387086,OSM_Polygon,Religious Site,,,M010,,,,1,,,,1,SRW001,31-Aug-2016,,,,, ,2, ,,,Islam,Arabic,Arab,,200,201,0,0,0,9
AAASSYR00202,"(Mosque, Fardous district, Aleppo)",36.18751065,37.1452475,,OSM_Polygon,203389502,OSM_Polygon,Religious Site,,,M010,,,,1,,,,1,SRW001,31-Aug-2016,,,,, ,0, ,,,Islam,Arabic,Arab,Aleppo,201,202,0,0,0,9
AAASSYR00203,"Virgin Mosque, Aleppo (جامع البتول)",36.1852571,37.13552475,,OSM_Polygon,203389503,OSM_Polygon,Religious Site,,,M010,,,,1,,,,1,SRW001,31-Aug-2016,,,,, ,0, ,,,Islam,Arabic,Arab,Aleppo,202,203,0,0,0,9
AAASSYR00204,"(Mosque, Fardous district, Aleppo)",36.1866208,37.14379825,,OSM_Polygon,203389505,OSM_Polygon,Religious Site,,,M010,,,,1,,,,1,SRW001,31-Aug-2016,,,,, ,0, ,,,Islam,Arabic,Arab,Aleppo,203,204,0,0,0,9
AAASSYR00205,"(Mosque Al Anshari Sharqi neighborhood, Aleppo)",36.1819555,37.14317995,,OSM_Polygon,203389508,OSM_Polygon,Religious Site,,,M010,,,,1,,,,1,SRW001,31-Aug-2016,,,,, ,0, ,,,Islam,Arabic,Arab,Aleppo,204,205,0,0,0,9
AAASSYR00208,"Abu Huraira Mosque, Aleppo (جامع أبو هريرة)",36.1865065502,37.1492504,,OSM_Polygon,203389537,OSM_Polygon,Religious Site,,,M010,,,,1,,,,1,SRW001,31-Aug-2016,,,,, ,2, ,,,Islam,Arabic,Arab,Aleppo,207,208,0,0,0,9
AAASSYR00209,"(Mosque Al Ansari Mashhad neighborhood, Aleppo)",36.1867996,37.13738655,,OSM_Polygon,203389539,OSM_Polygon,Religious Site,,,M010,,,,1,,,,1,SRW001,31-Aug-2016,,,,, ,0, ,,,Islam,Arabic,Arab,Aleppo,208,209,0,0,0,9
AAASSYR00213,"(Mosque, Aleppo)",36.17933915,37.14620295,,OSM_Polygon,203396524,OSM_Polygon,Religious Site,,,M010,,,,1,,,,1,SRW001,31-Aug-2016,,,,, ,0, ,,,Islam,Arabic,Arab,Aleppo,212,213,0,0,0,9
AAASSYR00214,"(Mosque, As-Sukari district, Aleppo)",36.1785137496,37.1409073997,,OSM_Polygon,203396525,OSM_Polygon,Religious Site,,,M010,,,,1,,,,1,SRW001,31-Aug-2016,,,,, ,2, ,,,Islam,Arabic,Arab,Aleppo,213,214,0,0,0,9
AAASSYR00215,"Abdullah bin Abbas Mosque, Aleppo)",36.17459435,37.1336005,,OSM_Polygon,203396527,OSM_Polygon,Religious Site,,,M010,,,,1,,,,1,SRW001,31-Aug-2016,,,,, ,0, ,,,Islam,Arabic,Arab,Aleppo,214,215,0,0,0,9
AAASSYR00218,"Al-Bara Bin Malik Mosque, Al Ameen (جامع البراء بن مالك), Haritan",36.276899,37.083464,,OSM_Polygon,203415788,OSM_Polygon,Religious Site,,,M010,,,,1,,,,1,SRW001,31-Aug-2016,,,,, ,0, ,,,Islam,Arabic,Arab,,217,218,0,0,0,9
AAASSYR00219,"Mosque, Maarba (مسجد معربا)",33.573667,36.2920068,,OSM_Polygon,203426431,OSM_Polygon,Religious Site,,,M010,,,,1,,,,1,SRW001,31-Aug-2016,,,,, ,0, ,,,Islam,Arabic,Arab,,218,219,0,0,0,9
AAASSYR00225,Aleppo Mosque Abi Yehia al-Kawakibi,36.1954329,37.15315525,,OSM_Polygon,203435710,Penn,Religious Site,,,M010,,,,1,,,,,SRW001,31-Aug-2016,,,,, ,0, ,,,Islam,Arabic,Arab,Aleppo,224,225,0,0,1,9
AAASSYR00226,"Gamal Abd Al Nasser Mosque, Aleppo",36.1944374,37.1508888,,OSM_Polygon,203435712,OSM_Polygon,Religious Site,,,M010,,,,1,,,,1,SRW001,31-Aug-2016,,,,, ,0, ,,,Islam,Arabic,Arab,Aleppo,225,226,0,0,0,9
AAASSYR00228,Aleppo Khan al-Tutun al-Saghir,36.1988668,37.15333985,,OSM_Polygon,203436261,Penn,Historic Structure,,,M010,,,,1,,,,,SRW001,31-Aug-2016,,,,, ,0, ,,,Islam,Arabic,Arab,Aleppo,227,228,0,0,2,5
AAASSYR00231,Aleppo al-Ahmadiya/Chalabi Madrasa,36.1985129,37.1550562,,OSM_Polygon,203436278,Penn,Religious Site,,,M010,,,,1,,,,,SRW001,31-Aug-2016,,,,, ,0, ,,,Islam,Arabic,Arab,Aleppo,230,231,0,0,1,9
AAASSYR00232,"Hudhayfah ibn al-Yaman Mosque, Aleppo",36.19748485,37.13914655,,OSM_Polygon,203436454,OSM_Polygon,Religious Site,,,M010,,,,1,,,,1,SRW001,31-Aug-2016,,,,, ,0, ,,,Islam,Arabic,Arab,Aleppo,231,232,0,0,0,9
AAASSYR00233,"Salam Mosque, Aleppo",36.2058974,37.13699645,,OSM_Polygon,203462086,OSM_Polygon,Religious Site,,,M010,,,,1,,,,1,SRW001,31-Aug-2016,,,,, ,0, ,,,Islam,Arabic,Arab,Aleppo,232,233,0,0,0,9
AAASSYR00235,"Al Siddiq Mosque, Aleppo",36.20713635,37.14377235,,OSM_Polygon,203462091,OSM_Polygon,Religious Site,,,M010,,,,1,,,,1,SRW001,31-Aug-2016,,,,, ,0, ,,,Islam,Arabic,Arab,Aleppo,234,235,0,0,0,9
AAASSYR00236,"Fatih Mosque, Aleppo",36.2080568,37.13752585,,OSM_Polygon,203462092,OSM_Polygon,Religious Site,,,M010,,,,1,,,,1,SRW001,31-Aug-2016,,,,, ,0, ,,,Islam,Arabic,Arab,Aleppo,235,236,0,0,0,9
AAASSYR00237,"Usama bin Zaid Mosque, Aleppo",36.20748145,37.16539415,,OSM_Polygon,203466285,OSM_Polygon,Religious Site,,,M010,,,,1,,,,1,SRW001,31-Aug-2016,,,,, ,0, ,,,Islam,Arabic,Arab,Aleppo,236,237,0,0,0,9
AAASSYR00240,"Mosque, Aleppo (جامع البادنجكي)",36.1930778,37.17354785,,OSM_Polygon,203467553,OSM_Polygon,Religious Site,,,M010,,,,1,,,,1,SRW001,31-Aug-2016,,,,, ,0, ,,,Islam,Arabic,Arab,Aleppo,239,240,0,0,0,9
AAASSYR00241,"Mosque, Duwayr al-Zeytoun",36.33108045,37.146944601,,OSM_Polygon,203496008,OSM_Polygon,Religious Site,,,M010,,,,1,,,,1,SRW001,31-Aug-2016,,,,, ,0, ,,,Islam,Arabic,Arab,,240,241,0,0,0,9
AAASSYR00247,"Sabil Mosque, Aleppo (جامع السبيل)",36.21188465,37.1377623,,OSM_Polygon,203504520,OSM_Polygon,Religious Site,,,M010,,,,1,,,,1,SRW001,31-Aug-2016,,,,, ,0, ,,,Islam,Arabic,Arab,Aleppo,246,247,0,0,0,9
AAASSYR00248,"Al-Sa'ad Mosque, Aleppo",36.2065588,37.11248885,,OSM_Polygon,203512024,OSM_Polygon,Religious Site,,,M010,,,,1,,,,1,SRW001,31-Aug-2016,,,,, ,0, ,,,Islam,Arabic,Arab,Aleppo,247,248,0,0,0,9
AAASSYR00250,"Badr Mosque, Aleppo (جامع اهل بدر)",36.20225085,37.1175205,,OSM_Polygon,203515194,OSM_Polygon,Religious Site,,,M010,,,,1,,,,1,SRW001,31-Aug-2016,,,,, ,0, ,,,Islam,Arabic,Arab,Aleppo,249,250,0,0,0,9
AAASSYR00253,"Anwar Mosque, Aleppo",36.2055488,37.1293816,,OSM_Polygon,203515219,OSM_Polygon,Religious Site,,,M010,,,,1,,,,1,SRW001,31-Aug-2016,,,,, ,0, ,,,Islam,Arabic,Arab,Aleppo,252,253,0,0,0,9
AAASSYR00254,"Imam Bukhari Mosque, Aleppo",36.2234909,37.1139071,,OSM_Polygon,203521859,OSM_Polygon,Religious Site,,,M010,,,,1,,,,1,SRW001,31-Aug-2016,,,,, ,0, ,,,Islam,Arabic,Arab,Aleppo,253,254,0,0,0,9
AAASSYR00256,"A'esha? / Radwan? Mosque, Aleppo",36.2153697,37.11896875,,OSM_Polygon,203521862,OSM_Polygon,Religious Site,,,M010,,,,1,,,,1,SRW001,31-Aug-2016,,,,, ,0, ,,,Islam,Arabic,Arab,Aleppo,255,256,0,0,0,9
AAASSYR00257,"Maysaloun Mosque, Aleppo",36.21235,37.1642462,,OSM_Polygon,203546664,OSM_Polygon,Religious Site,,,M010,,,,1,,,,1,SRW001,31-Aug-2016,,,,, ,0, ,,,Islam,Arabic,Arab,Aleppo,256,257,0,1,0,9
AAASSYR00258,"Holy Mosque, Aleppo (جامع القران)",36.2158693,37.174754,,OSM_Polygon,203546672,OSM_Polygon,Religious Site,,,M010,,,,1,,,,1,SRW001,31-Aug-2016,,,,, ,0, ,,,Islam,Arabic,Arab,Aleppo,257,258,0,0,0,9
AAASSYR00259,"Ali and Hamadiyah Mosque, Aleppo",36.21033125,37.15810665,,OSM_Polygon,203546687,OSM_Polygon,Religious Site,,,M010,,,,1,,,,1,SRW001,31-Aug-2016,,,,, ,0, ,,,Islam,Arabic,Arab,Aleppo,258,259,0,0,0,9
AAASSYR00261,"Hassan Mosque, Aleppo",36.2265539,37.160133,,OSM_Polygon,203554367,OSM_Polygon,Religious Site,,,M010,,,,1,,,,1,SRW001,31-Aug-2016,,,,, ,0, ,,,Islam,Arabic,Arab,Aleppo,260,261,0,0,0,9
AAASSYR00262,Aleppo Mosque Sheikh Abu Bakr and Takiyat/ Mosque Sheikh al Wafai mosque (Aleppo),36.21433865,37.16803275,,OSM_Polygon,203569181,Penn,Religious Site,,,M010,,,,1,,,,,SRW001,31-Aug-2016,,,,, ,0, ,,,Islam,Arabic,Arab,Aleppo,261,262,0,1,1,9
AAASSYR00263,"Ahmad Al Qari Mosque, Aleppo",36.21686165,37.1660027,,OSM_Polygon,203569182,OSM_Polygon,Religious Site,,,M010,,,,1,,,,1,SRW001,31-Aug-2016,,,,, ,0, ,,,Islam,Arabic,Arab,Aleppo,262,263,0,0,0,9
AAASSYR00265,"Al Ansar Mosque, Aleppo",36.21240025,37.1696768,,OSM_Polygon,203569201,OSM_Polygon,Religious Site,,,M010,,,,1,,,,1,SRW001,31-Aug-2016,,,,, ,0, ,,,Islam,Arabic,Arab,Aleppo,264,265,0,0,0,9
AAASSYR00266,"Hajjar Mosque, Aleppo",36.2198943,37.17148725,,OSM_Polygon,203569202,OSM_Polygon,Religious Site,,,M010,,,,1,,,,1,SRW001,31-Aug-2016,,,,, ,0, ,,,Islam,Arabic,Arab,Aleppo,265,266,0,0,0,9
AAASSYR00267,"Amr Ibn Al Jamuh Mosque, Aleppo (مسجد عمرو بن الجموح)",36.2210935,37.1964514,,OSM_Polygon,203599520,OSM_Polygon,Religious Site,,,M010,,,,1,,,,1,SRW001,31-Aug-2016,,,,, ,0, ,,,Islam,Arabic,Arab,Aleppo,266,267,0,0,0,9
AAASSYR00270,"Uthman bin Mazoon Mosque, Aleppo",36.2236576,37.1997602,,OSM_Polygon,203599537,OSM_Polygon,Religious Site,,,M010,,,,1,,,,1,SRW001,31-Aug-2016,,,,, ,0, ,,,Islam,Arabic,Arab,Aleppo,269,270,0,0,0,9
AAASSYR00272,"Abu Bakr Mosque, Aleppo",36.21489015,37.18944895,,OSM_Polygon,203610541,OSM_Polygon,Religious Site,,,M010,,,,1,,,,1,SRW001,31-Aug-2016,,,,, ,0, ,,,Islam,Arabic,Arab,Aleppo,271,272,0,0,0,9
AAASSYR00273,"Jamie eibad ar-rahman Mosque, Aleppo",36.2094605,37.1857643,,OSM_Polygon,203610542,OSM_Polygon,Religious Site,,,M010,,,,1,,,,1,SRW001,31-Aug-2016,,,,, ,0, ,,,Islam,Arabic,Arab,Aleppo,272,273,0,0,0,9
AAASSYR00276,Ø¬Ø§Ù…Ø¹ Ø§Ù„ÙØªØ­,36.20048405,37.19730215,,OSM_Polygon,203617352,OSM_Polygon,Museum,,,M010,,,,1,,,,1,SRW001,31-Aug-2016,,,,, ,0, ,,,Islam,Arabic,Arab,,275,276,0,0,0,8
AAASSYR00278,"Noor Shuhada Mosque, Aleppo",36.2061536,37.18104345,,OSM_Polygon,203617361,OSM_Polygon,Museum,,,M010,,,,1,,,,1,SRW001,31-Aug-2016,,,,, ,0, ,,,Islam,Arabic,Arab,Aleppo,277,278,0,0,0,8
AAASSYR00280,"Safa and Marwa Mosque, Aleppo",36.20365155,37.189373751,,OSM_Polygon,203617370,OSM_Polygon,Religious Site,,,M010,,,,1,,,,1,SRW001,31-Aug-2016,,,,, ,0, ,,,Islam,Arabic,Arab,Aleppo,279,280,0,0,0,9
AAASSYR00281,"Zine El Abidine Mosque, Aleppo",36.17919785,37.113532801,,OSM_Polygon,203619594,OSM_Polygon,Religious Site,,,M010,,,,1,,,,1,SRW001,31-Aug-2016,,,,, ,0, ,,,Islam,Arabic,Arab,Aleppo,280,281,0,0,0,9
AAASSYR00282,"Imam Ali mosque?/ Jama Ali bin Abi Talib?, Aleppo",36.184891,37.11275565,,OSM_Polygon,203619597,OSM_Polygon,Religious Site,,,M010,,,,1,,,,1,SRW001,31-Aug-2016,,,,, ,0, ,,,Islam,Arabic,Arab,Aleppo,281,282,0,0,0,9
AAASSYR00283,"Hassan Mosque, Aleppo",36.17642435,37.11546785,,OSM_Polygon,203625191,OSM_Polygon,Religious Site,,,M010,,,,1,,,,1,SRW001,31-Aug-2016,,,,, ,0, ,,,Islam,Arabic,Arab,Aleppo,282,283,0,0,0,9
AAASSYR00284,"Khalifah Umar Farouq Mosque, Aleppo+T3:U4",36.17673815,37.1122885,,OSM_Polygon,203625192,OSM_Polygon,Religious Site,,,M010,,,,1,,,,1,SRW001,31-Aug-2016,,,,, ,0, ,,,Islam,Arabic,Arab,Aleppo,283,284,0,0,0,9
AAASSYR00286,"Jama Ali bin Abi Talib, Aleppo",36.18069,37.131073,,OSM_Polygon,203625201,OSM_Polygon,Religious Site,,,M010,,,,1,,,,1,SRW001,31-Aug-2016,,,,, ,0, ,,,Islam,Arabic,Arab,Aleppo,285,286,0,0,0,9
AAASSYR00287,"Salah Eldean Mosque, Aleppo",36.18074915,37.12587485,,OSM_Polygon,203625204,OSM_Polygon,Religious Site,,,M010,,,,1,,,,1,SRW001,31-Aug-2016,,,,, ,0, ,,,Islam,Arabic,Arab,Aleppo,286,287,0,0,0,9
AAASSYR00289,"Saad bin Abi Waqas Mosque, Aleppo",36.18450005,37.1255852,,OSM_Polygon,203625208,OSM_Polygon,Religious Site,,,M010,,,,1,,,,1,SRW001,31-Aug-2016,,,,, ,0, ,,,Islam,Arabic,Arab,Aleppo,288,289,0,0,0,9
AAASSYR00290,"Zubair Mosque, Aleppo",36.1801745,37.12165765,,OSM_Polygon,203625211,OSM_Polygon,Religious Site,,,M010,,,,1,,,,1,SRW001,31-Aug-2016,,,,, ,0, ,,,Islam,Arabic,Arab,Aleppo,289,290,0,0,0,9
AAASSYR00291,"Bilal Mosque, Aleppo",36.18679075,37.1225885,,OSM_Polygon,203625223,OSM_Polygon,Religious Site,,,M010,,,,1,,,,1,SRW001,31-Aug-2016,,,,, ,0, ,,,Islam,Arabic,Arab,Aleppo,290,291,0,0,0,9
AAASSYR00292,"Uwais al-Qarni Mosque, Aleppo. ",36.1767517,37.12286,,OSM_Polygon,203626775,OSM_Polygon,Religious Site,,,M010,,,,1,,,,1,SRW001,31-Aug-2016,,,,, ,0, ,,,Islam,Arabic,Arab,Aleppo,291,292,0,0,0,9
AAASSYR00293,"Hasan al-Basri, Aleppo",36.1770998,37.12654545,,OSM_Polygon,203626776,OSM_Polygon,Religious Site,,,M010,,,,1,,,,1,SRW001,31-Aug-2016,,,,, ,0, ,,,Islam,Arabic,Arab,Aleppo,292,293,0,0,0,9
AAASSYR00294,"Mustafa Mosque, Aleppo",36.177953,37.10919655,,OSM_Polygon,203631811,OSM_Polygon,Religious Site,,,M010,,,,1,,,,1,SRW001,31-Aug-2016,,,,, ,0, ,,,Islam,Arabic,Arab,Aleppo,293,294,0,0,0,9
AAASSYR00296,"Hafez al-Assad Mosque, Aleppo",36.18923855,37.10922055,,OSM_Polygon,203631813,OSM_Polygon,Religious Site,,,M010,,,,1,,,,1,SRW001,31-Aug-2016,,,,, ,0, ,,,Islam,Arabic,Arab,Aleppo,295,296,0,0,0,9
AAASSYR00297,"Radwa Mosque, Aleppo",36.1760858,37.0985318,,OSM_Polygon,203631814,OSM_Polygon,Religious Site,,,M010,,,,1,,,,1,SRW001,31-Aug-2016,,,,, ,0, ,,,Islam,Arabic,Arab,Aleppo,296,297,0,0,0,9
AAASSYR00299,"Saad Ibn Alrabe'a Mosque, Aleppo (جامع سعد بن الربيع)",36.20486875,37.09116815,,OSM_Polygon,203641787,OSM_Polygon,Religious Site,,,M010,,,,1,,,,1,SRW001,31-Aug-2016,,,,, ,0, ,,,Islam,Arabic,Arab,Aleppo,298,299,0,0,0,9
AAASSYR00300,Aleppo Abdulla bin Mubarak Mosque,36.1970734,37.1029754,,OSM_Polygon,203641804,OSM_Polygon,Religious Site,,,M010,,,,1,,,,1,SRW001,31-Aug-2016,,,,, ,0, ,,,Islam,Arabic,Arab,Aleppo,299,300,0,0,0,9
AAASSYR00301,"Amr Bin Al-Aas Mosque, Aleppo",36.205733,37.10203535,,OSM_Polygon,203641814,OSM_Polygon,Religious Site,,,M010,,,,1,,,,1,SRW001,31-Aug-2016,,,,, ,0, ,,,Islam,Arabic,Arab,Aleppo,300,301,0,0,0,9
AAASSYR00302,"Al Rahma Mosque, Aleppo",36.1951433,37.10031025,,OSM_Polygon,203641854,OSM_Polygon,Religious Site,,,M010,,,,1,,,,1,SRW001,31-Aug-2016,,,,, ,0, ,,,Islam,Arabic,Arab,Aleppo,301,302,0,0,0,9
AAASSYR00303,Aleppo Usaid Ben Hudayr Mosque,36.2259382,37.11149585,,OSM_Polygon,203649337,OSM_Polygon,Religious Site,,,M010,,,,1,,,,1,SRW001,31-Aug-2016,,,,, ,0, ,,,Islam,Arabic,Arab,Aleppo,302,303,0,0,0,9
AAASSYR00305,"Collector master of martyrs Hamza Bin Abdul Muttalib Mosque, Aleppo",36.22465175,37.0930486,,OSM_Polygon,203649342,OSM_Polygon,Religious Site,,,M010,,,,1,,,,1,SRW001,31-Aug-2016,,,,, ,0, ,,,Islam,Arabic,Arab,Aleppo,304,305,0,0,0,9
AAASSYR00306,"Mohamed al-Shami Mosque, Aleppo",36.22433915,37.103944049,,OSM_Polygon,203649345,OSM_Polygon,Religious Site,,,M010,,,,1,,,,1,SRW001,31-Aug-2016,,,,, ,0, ,,,Islam,Arabic,Arab,Aleppo,305,306,0,0,0,9
AAASSYR00307,"Kaab Ben Malek Mosque, Aleppo",36.21751525,37.10228585,,OSM_Polygon,203649349,OSM_Polygon,Religious Site,,,M010,,,,1,,,,1,SRW001,31-Aug-2016,,,,, ,0, ,,,Islam,Arabic,Arab,Aleppo,306,307,0,0,0,9
AAASSYR00308,"Aisha Mother of the Believers Mosque, Aleppo",36.21776825,37.09089245,,OSM_Polygon,203649363,OSM_Polygon,Religious Site,,,M010,,,,1,,,,1,SRW001,31-Aug-2016,,,,, ,0, ,,,Islam,Arabic,Arab,Aleppo,307,308,0,0,0,9
AAASSYR00309,"Al Bashir Al Nadhir Mosque, Aleppo",36.2300714,37.10834735,,OSM_Polygon,203652630,OSM_Polygon,Religious Site,,,M010,,,,1,,,,1,SRW001,31-Aug-2016,,,,, ,0, ,,,Islam,Arabic,Arab,Aleppo,308,309,0,0,0,9
AAASSYR00310,"(Mosque, Aleppo)",36.2359958,37.10009005,,OSM_Polygon,203652634,OSM_Polygon,Religious Site,,,M010,,,,1,,,,1,SRW001,31-Aug-2016,,,,, ,0, ,,,Islam,Arabic,Arab,Aleppo,309,310,0,0,0,9
AAASSYR00311,"Suhaib bin Sinan Mosque, Aleppo",36.2393554,37.0982485,,OSM_Polygon,203652635,OSM_Polygon,Religious Site,,,M010,,,,1,,,,1,SRW001,31-Aug-2016,,,,, ,0, ,,,Islam,Arabic,Arab,Aleppo,310,311,0,0,0,9
AAASSYR00312,"(Mosque, Aleppo)",36.2408983,37.1112846,,OSM_Polygon,203652639,OSM_Polygon,Religious Site,,,M010,,,,1,,,,1,SRW001,31-Aug-2016,,,,, ,0, ,,,Islam,Arabic,Arab,Aleppo,311,312,0,0,0,9
AAASSYR00313,"Qutayba ibn Muslim Mosque, Aleppo",36.22858565,37.1147404,,OSM_Polygon,203654285,OSM_Polygon,Religious Site,,,M010,,,,1,,,,1,SRW001,31-Aug-2016,,,,, ,0, ,,,Islam,Arabic,Arab,Aleppo,312,313,0,0,0,9
AAASSYR00314,"Mosque, Aleppo",36.23609205,37.13123925,,OSM_Polygon,203654288,OSM_Polygon,Religious Site,,,M010,,,,1,,,,1,SRW001,31-Aug-2016,,,,, ,0, ,,,Islam,Arabic,Arab,Aleppo,313,314,0,0,0,9
AAASSYR00315,"Al-Ghufran Mosque, Aleppo",36.22748765,37.11932905,,OSM_Polygon,203654300,OSM_Polygon,Religious Site,,,M010,,,,1,,,,1,SRW001,31-Aug-2016,,,,, ,0, ,,,Islam,Arabic,Arab,Aleppo,314,315,0,0,0,9
AAASSYR00316,"Qepa Mosque, Aleppo",36.23386275,37.1450971,,OSM_Polygon,203656571,OSM_Polygon,Religious Site,,,M010,,,,1,,,,1,SRW001,31-Aug-2016,,,,, ,0, ,,,Islam,Arabic,Arab,Aleppo,315,316,0,0,0,9
AAASSYR00317,"Ashrafiyye Mosque, Aleppo",36.2378323,37.13390965,,OSM_Polygon,203656574,OSM_Polygon,Religious Site,,,M010,,,,1,,,,1,SRW001,31-Aug-2016,,,,, ,0, ,,,Islam,Arabic,Arab,Aleppo,316,317,0,0,0,9
AAASSYR00321,"(Mosque, Aleppo)",36.2425666,37.1583156,,OSM_Polygon,203688836,OSM_Polygon,Religious Site,,,M010,,,,1,,,,1,SRW001,31-Aug-2016,,,,, ,0, ,,,Islam,Arabic,Arab,Aleppo,320,321,0,0,0,9
AAASSYR00323,"Mosque, Aleppo",36.22889545,37.1686346,,OSM_Polygon,203688845,OSM_Polygon,Religious Site,,,M010,,,,1,,,,1,SRW001,31-Aug-2016,,,,, ,0, ,,,Islam,Arabic,Arab,Aleppo,322,323,0,1,0,9
AAASSYR00325,"(Mosque, Aleppo)",36.24134675,37.1950899,,OSM_Polygon,203693799,OSM_Polygon,Religious Site,,,M010,,,,1,,,,1,SRW001,31-Aug-2016,,,,, ,0, ,,,Islam,Arabic,Arab,Aleppo,324,325,0,0,0,9
AAASSYR00326,"(Mosque, Aleppo)",36.2269053,37.1875262,,OSM_Polygon,203698624,OSM_Polygon,Religious Site,,,M010,,,,1,,,,1,SRW001,31-Aug-2016,,,,, ,0, ,,,Islam,Arabic,Arab,Aleppo,325,326,0,0,0,9
AAASSYR00327,"(Mosque, Aleppo)",36.23536235,37.18757085,,OSM_Polygon,203698626,OSM_Polygon,Religious Site,,,M010,,,,1,,,,1,SRW001,31-Aug-2016,,,,, ,0, ,,,Islam,Arabic,Arab,Aleppo,326,327,0,0,0,9
AAASSYR00328,"(Mosque, Aleppo)",36.23294415,37.1858572,,OSM_Polygon,203698644,OSM_Polygon,Religious Site,,,M010,,,,1,,,,1,SRW001,31-Aug-2016,,,,, ,0, ,,,Islam,Arabic,Arab,Aleppo,327,328,0,0,0,9
AAASSYR00329,"جامع المتقين Mosque, Aleppo",36.22966165,37.19425645,,OSM_Polygon,203701164,OSM_Polygon,Religious Site,,,M010,,,,1,,,,1,SRW001,31-Aug-2016,,,,, ,0, ,,,Islam,Arabic,Arab,Aleppo,328,329,0,0,0,9
AAASSYR00330,"(Mosque, Aleppo)",36.2328989,37.18003485,,OSM_Polygon,203703345,OSM_Polygon,Religious Site,,,M010,,,,1,,,,1,SRW001,31-Aug-2016,,,,, ,0, ,,,Islam,Arabic,Arab,Aleppo,329,330,0,0,0,9
AAASSYR00331,"(Mosque, Aleppo)",36.2584511,37.1894494,,OSM_Polygon,203707720,OSM_Polygon,Religious Site,,,M010,,,,1,,,,1,SRW001,31-Aug-2016,,,,, ,0, ,,,Islam,Arabic,Arab,Aleppo,330,331,0,0,0,9
AAASSYR00332,"(Mosque, Aleppo)",36.2543389,37.09574335,,OSM_Polygon,203723336,OSM_Polygon,Religious Site,,,M010,,,,1,,,,1,SRW001,31-Aug-2016,,,,, ,0, ,,,Islam,Arabic,Arab,Aleppo,331,332,0,0,0,9
AAASSYR00334,"(Mosque, Aleppo)",36.25711845,37.06963705,,OSM_Polygon,203733933,OSM_Polygon,Religious Site,,,M010,,,,1,,,,1,SRW001,31-Aug-2016,,,,, ,0, ,,,Islam,Arabic,Arab,Aleppo,333,334,0,0,0,9
AAASSYR00336,"(Mosque, Aleppo)",36.2133125,37.0712225,,OSM_Polygon,203739109,OSM_Polygon,Religious Site,,,M010,,,,1,,,,1,SRW001,31-Aug-2016,,,,, ,0, ,,,Islam,Arabic,Arab,Aleppo,335,336,0,0,0,9
AAASSYR00337,"(Mosque, Aleppo)",36.2091916,37.06880775,,OSM_Polygon,203740310,OSM_Polygon,Religious Site,,,M010,,,,1,,,,1,SRW001,31-Aug-2016,,,,, ,0, ,,,Islam,Arabic,Arab,Aleppo,336,337,0,0,0,9
AAASSYR00338,"(Mosque, Aleppo)",36.17305235,37.0789056,,OSM_Polygon,203748126,OSM_Polygon,Religious Site,,,M010,,,,1,,,,1,SRW001,31-Aug-2016,,,,, ,0, ,,,Islam,Arabic,Arab,Aleppo,337,338,0,0,0,9
AAASSYR00339,"Kasaani Mosque, Aleppo",36.1730077,37.1110908,,OSM_Polygon,203749863,OSM_Polygon,Religious Site,,,M010,,,,1,,,,1,SRW001,31-Aug-2016,,,,, ,0, ,,,Islam,Arabic,Arab,Aleppo,338,339,0,0,0,9
AAASSYR00340,"(Mosque, Aleppo)",36.18517825,37.17931645,,OSM_Polygon,203751583,OSM_Polygon,Religious Site,,,M010,,,,1,,,,1,SRW001,31-Aug-2016,,,,, ,0, ,,,Islam,Arabic,Arab,Aleppo,339,340,0,0,0,9
AAASSYR00345,"(Mosque, Aleppo)",36.17176415,37.1487433,,OSM_Polygon,203779320,OSM_Polygon,Religious Site,,,M010,,,,1,,,,1,SRW001,31-Aug-2016,,,,, ,0, ,,,Islam,Arabic,Arab,Aleppo,344,345,0,0,0,9
AAASSYR00346,"(Mosque, Aleppo)",36.1714421,37.13965345,,OSM_Polygon,203779323,OSM_Polygon,Religious Site,,,M010,,,,1,,,,1,SRW001,31-Aug-2016,,,,, ,0, ,,,Islam,Arabic,Arab,Aleppo,345,346,0,0,0,9
AAASSYR00347,"(Mosque, Aleppo)",36.1728026,37.1413108,,OSM_Polygon,203779326,OSM_Polygon,Religious Site,,,M010,,,,1,,,,1,SRW001,31-Aug-2016,,,,, ,0, ,,,Islam,Arabic,Arab,Aleppo,346,347,0,0,0,9
AAASSYR00348,"(Mosque, Aleppo)",36.17100165,37.13489675,,OSM_Polygon,203779327,OSM_Polygon,Religious Site,,,M010,,,,1,,,,1,SRW001,31-Aug-2016,,,,, ,0, ,,,Islam,Arabic,Arab,Aleppo,347,348,0,0,0,9
AAASSYR00349,"(Mosque, Aleppo)",36.1677,37.1337942,,OSM_Polygon,203779329,OSM_Polygon,Religious Site,,,M010,,,,1,,,,1,SRW001,31-Aug-2016,,,,, ,0, ,,,Islam,Arabic,Arab,Aleppo,348,349,0,0,0,9
AAASSYR00350,"(Mosque, Aleppo)",36.15177895,37.13431885,,OSM_Polygon,203780674,OSM_Polygon,Religious Site,,,M010,,,,1,,,,1,SRW001,31-Aug-2016,,,,, ,0, ,,,Islam,Arabic,Arab,Aleppo,349,350,0,0,0,9
AAASSYR00351,"(Mosque, Aleppo)",36.1605398,37.15759905,,OSM_Polygon,203780921,OSM_Polygon,Religious Site,,,M010,,,,1,,,,1,SRW001,31-Aug-2016,,,,, ,0, ,,,Islam,Arabic,Arab,Aleppo,350,351,0,0,0,9
AAASSYR00352,"(Mosque, Aleppo)",36.16782135,37.1619338,,OSM_Polygon,203780922,OSM_Polygon,Religious Site,,,M010,,,,1,,,,1,SRW001,31-Aug-2016,,,,, ,0, ,,,Islam,Arabic,Arab,Aleppo,351,352,0,0,0,9
AAASSYR00353,"(Mosque, Aleppo)",36.16345815,37.1574263,,OSM_Polygon,203780923,OSM_Polygon,Religious Site,,,M010,,,,1,,,,1,SRW001,31-Aug-2016,,,,, ,0, ,,,Islam,Arabic,Arab,Aleppo,352,353,0,0,0,9
AAASSYR00354,"(Mosque, Aleppo)",36.1735244,37.2210392,,OSM_Polygon,203783604,OSM_Polygon,Religious Site,,,M010,,,,1,,,,1,SRW001,31-Aug-2016,,,,, ,0, ,,,Islam,Arabic,Arab,Aleppo,353,354,0,0,0,9
AAASSYR00355,"(Mosque, Aleppo)",36.2016774,37.21002095,,OSM_Polygon,203784476,OSM_Polygon,Religious Site,,,M010,,,,1,,,,1,SRW001,31-Aug-2016,,,,, ,0, ,,,Islam,Arabic,Arab,Aleppo,354,355,0,0,0,9
AAASSYR00356,"(Mosque, Aleppo)",36.19257375,37.2047285,,OSM_Polygon,203801242,OSM_Polygon,Religious Site,,,M010,,,,1,,,,1,SRW001,31-Aug-2016,,,,, ,0, ,,,Islam,Arabic,Arab,Aleppo,355,356,0,0,0,9
AAASSYR00357,"(Mosque, Aleppo)",36.1951897,37.2111828,,OSM_Polygon,203801244,OSM_Polygon,Religious Site,,,M010,,,,1,,,,1,SRW001,31-Aug-2016,,,,, ,0, ,,,Islam,Arabic,Arab,Aleppo,356,357,0,0,0,9
AAASSYR00358,House Sayeh Mosque aleppo,36.17874185,37.2635873,,OSM_Polygon,203803442,OSM_Polygon,Religious Site,,,M010,,,,1,,,,1,SRW001,31-Aug-2016,,,,, ,0, ,,,Islam,Arabic,Arab,Aleppo,357,358,0,0,0,9
AAASSYR00359,"Khalid ibn al-Walid Mosque, Aleppo",36.18298685,37.254199,,OSM_Polygon,203803443,OSM_Polygon,Religious Site,,,M010,,,,1,,,,1,SRW001,31-Aug-2016,,,,, ,0, ,,,Islam,Arabic,Arab,Aleppo,358,359,0,0,0,9
AAASSYR00360,"(Mosque, Aleppo)",36.2169002,37.2019486,,OSM_Polygon,203805118,OSM_Polygon,Religious Site,,,M010,,,,1,,,,1,SRW001,31-Aug-2016,,,,, ,0, ,,,Islam,Arabic,Arab,Aleppo,359,360,0,0,0,9
AAASSYR00361,"Farouk Mosque, Aleppo",36.23106065,37.2038495,,OSM_Polygon,203848050,OSM_Polygon,Religious Site,,,M010,,,,1,,,,1,SRW001,31-Aug-2016,,,,, ,0, ,,,Islam,Arabic,Arab,Aleppo,360,361,0,0,0,9
AAASSYR00362,"(Mosque, Aleppo)",36.23480865,37.207865151,,OSM_Polygon,203848053,OSM_Polygon,Religious Site,,,M010,,,,1,,,,1,SRW001,31-Aug-2016,,,,, ,0, ,,,Islam,Arabic,Arab,Aleppo,361,362,0,0,0,9
AAASSYR00364,"Uthman Ibn Affan Mosque, Homs ",34.71876475,36.713362,,OSM_Polygon,203864733,OSM_Polygon,Religious Site,,,M010,,,,1,,,,1,SRW001,31-Aug-2016,,,,, ,0, ,,,Islam,Arabic,Arab,Homs,363,364,0,0,0,9
AAASSYR00365,"Furqan Mosque, Homs",34.71875985,36.70221155,,OSM_Polygon,203864739,OSM_Polygon,Religious Site,,,M010,,,,1,,,,1,SRW001,31-Aug-2016,,,,, ,0, ,,,Islam,Arabic,Arab,Homs,364,365,0,0,0,9
AAASSYR00366,"(Mosque, Homs)",34.7344555,36.7173616,,OSM_Polygon,203921343,OSM_Polygon,Religious Site,,,M010,,,,1,,,,1,SRW001,31-Aug-2016,,,,, ,0, ,,,Islam,Arabic,Arab,Homs,365,366,0,0,0,9
AAASSYR00370,"Al Barr Mosque, Homs",34.7270235,36.7280988,,OSM_Polygon,203921375,OSM_Polygon,Religious Site,,,M010,,,,1,,,,1,SRW001,31-Aug-2016,,,,, ,0, ,,,Islam,Arabic,Arab,Homs,369,370,0,0,0,9
AAASSYR00371,"(Mosque, Homs)",34.7275215,36.7308727,,OSM_Polygon,203921386,OSM_Polygon,Religious Site,,,M010,,,,1,,,,1,SRW001,31-Aug-2016,,,,, ,0, ,,,Islam,Arabic,Arab,Homs,370,371,0,0,0,9
AAASSYR00373,"Mosque Ryad Alsalhin, Homs ",34.70558435,36.73167635,,OSM_Polygon,203926827,OSM_Polygon,Religious Site,,,M010,,,,1,,,,1,SRW001,31-Aug-2016,,,,, ,0, ,,,Islam,Arabic,Arab,Homs,372,373,0,0,0,9
AAASSYR00374,"Mreja Mosque, Homs",34.72196895,36.72268925,,OSM_Polygon,203926832,OSM_Polygon,Religious Site,,,M010,,,,1,,,,1,SRW001,31-Aug-2016,,,,, ,0, ,,,Islam,Arabic,Arab,Homs,373,374,0,0,0,9
AAASSYR00375,"Al Saman Mosque, Homs",34.7151329,36.69155025,,OSM_Polygon,203928368,OSM_Polygon,Religious Site,,,M010,,,,1,,,,1,SRW001,31-Aug-2016,,,,, ,0, ,,,Islam,Arabic,Arab,Homs,374,375,0,0,0,9
AAASSYR00376,"Hamza Baba Amr Mosque, Homs",34.70579675,36.6885457,,OSM_Polygon,203928373,OSM_Polygon,Religious Site,,,M010,,,,1,,,,1,SRW001,31-Aug-2016,,,,, ,0, ,,,Islam,Arabic,Arab,Homs,375,376,0,0,0,9
AAASSYR00377,"Habib Mustafa Mosque, Homs",34.6955194,36.7042251,,OSM_Polygon,203929485,OSM_Polygon,Religious Site,,,M010,,,,1,,,,1,SRW001,31-Aug-2016,,,,, ,0, ,,,Islam,Arabic,Arab,Homs,376,377,0,0,0,9
AAASSYR00379,"(Mosque, Homs)",34.69675255,36.67499135,,OSM_Polygon,203931335,OSM_Polygon,Religious Site,,,M010,,,,1,,,,1,SRW001,31-Aug-2016,,,,, ,0, ,,,Islam,Arabic,Arab,Homs,378,379,0,0,0,9
AAASSYR00380,"(Mosque, Homs)",34.7168566498,36.7428848498,,OSM_Polygon,203934806,OSM_Polygon,Religious Site,,,M010,,,,1,,,,1,SRW001,31-Aug-2016,,,,, ,2, ,,,Islam,Arabic,Arab,Homs,379,380,0,0,0,9
AAASSYR00381,"(Mosque, Homs)",34.7097482,36.7447634,,OSM_Polygon,203934807,OSM_Polygon,Religious Site,,,M010,,,,1,,,,1,SRW001,31-Aug-2016,,,,, ,0, ,,,Islam,Arabic,Arab,Homs,380,381,0,0,0,9
AAASSYR00382,"Noor Mosque, Teir Maalah",34.80284455,36.7104438,,OSM_Polygon,203939366,OSM_Polygon,Religious Site,,,M010,,,,1,,,,1,SRW001,31-Aug-2016,,,,, ,0, ,,,Islam,Arabic,Arab,,381,382,0,0,0,9
AAASSYR00386,"Mosque Imam Nawawi, Homs",34.7550224,36.7329298,,OSM_Polygon,203978643,OSM_Polygon,Religious Site,,,M010,,,,1,,,,1,SRW001,31-Aug-2016,,,,, ,0, ,,,Islam,Arabic,Arab,Homs,385,386,0,0,0,9
AAASSYR00387,"(Mosque, Homs)",34.7486164,36.7203541,,OSM_Polygon,203978644,OSM_Polygon,Religious Site,,,M010,,,,1,,,,1,SRW001,31-Aug-2016,,,,, ,0, ,,,Islam,Arabic,Arab,Homs,386,387,0,0,0,9
AAASSYR00388,"Al Taysir Mosque, Homs",34.75086845,36.72627035,,OSM_Polygon,203978656,OSM_Polygon,Religious Site,,,M010,,,,1,,,,1,SRW001,31-Aug-2016,,,,, ,0, ,,,Islam,Arabic,Arab,Homs,387,388,0,0,0,9
AAASSYR00389,"Mosque of Abu al-Hassan El-Shazly, Homs",34.7576096,36.73866345,,OSM_Polygon,203981017,OSM_Polygon,Religious Site,,,M010,,,,1,,,,1,SRW001,31-Aug-2016,,,,, ,0, ,,,Islam,Arabic,Arab,Homs,388,389,0,0,0,9
AAASSYR00390,"(Mosque, Kafar 'Aya)",34.680669,36.69267375,,OSM_Polygon,203983947,OSM_Polygon,Religious Site,,,M010,,,,1,,,,1,SRW001,31-Aug-2016,,,,, ,0, ,,,Islam,Arabic,Arab,,389,390,0,0,0,9
AAASSYR00391,"Jama Ali bin Abi Talib Mosque, Damascus",33.52208625,36.32503685,,OSM_Polygon,204043114,OSM_Polygon,Religious Site,,,M010,,,,1,,,,1,SRW001,31-Aug-2016,,,,, ,0, ,,,Islam,Arabic,Arab,Rif Dimashq,390,391,0,0,0,9
AAASSYR00392,"Al Rahma Mosque, Damascus",33.52143395,36.34331425,,OSM_Polygon,204045544,OSM_Polygon,Religious Site,,,M010,,,,1,,,,1,SRW001,31-Aug-2016,,,,, ,0, ,,,Islam,Arabic,Arab,Rif Dimashq,391,392,0,1,0,9
AAASSYR00393,"(Mosque, Greater Damascus)",33.52161505,36.36512965,,OSM_Polygon,204045546,OSM_Polygon,Religious Site,,,M010,,,,1,,,,1,SRW001,31-Aug-2016,,,,, ,0, ,,,Islam,Arabic,Arab,Rif Dimashq,392,393,0,0,0,9
AAASSYR00394,"Hamdy El Khayat Mosque, Grand Damascus",33.5268428,36.27765665,,OSM_Polygon,204085016,OSM_Polygon,Religious Site,,,M010,,,,1,,,,1,SRW001,31-Aug-2016,,,,, ,0, ,,,Islam,Arabic,Arab,Rif Dimashq,393,394,0,0,0,9
AAASSYR00395,Damascus Madrasa Rukniye,33.5346637,36.2942251,,OSM_Polygon,204085964,Penn,Religious Site,,,M010,,,,1,,,,,SRW001,31-Aug-2016,,,,, ,0, ,,,Islam,Arabic,Arab,Rif Dimashq,394,395,0,0,1,9
AAASSYR00396,"Huzaifa ibn al-Yaman Mosque, Damascus",33.4647094,36.2880139,,OSM_Polygon,204115531,OSM_Polygon,Religious Site,,,M010,,,,1,,,,1,SRW001,31-Aug-2016,,,,, ,0, ,,,Islam,Arabic,Arab,Rif Dimashq,395,396,0,0,0,9
AAASSYR00397,"(Mosque, Greater Damascus)",33.46434845,36.2915691503,,OSM_Polygon,204115534,OSM_Polygon,Religious Site,,,M010,,,,1,,,,1,SRW001,31-Aug-2016,,,,, ,2, ,,,Islam,Arabic,Arab,Rif Dimashq,396,397,0,0,0,9
AAASSYR00398,"(Mosque, Greater Damascus)",33.4672673,36.27745485,,OSM_Polygon,204117654,OSM_Polygon,Religious Site,,,M010,,,,1,,,,1,SRW001,31-Aug-2016,,,,, ,0, ,,,Islam,Arabic,Arab,Rif Dimashq,397,398,0,0,0,9
AAASSYR00399,"Anas Ibn Malik Mosque, Qadam Industrial Complex, Damascus",33.4664135,36.28455815,,OSM_Polygon,204117656,OSM_Polygon,Religious Site,,,M010,,,,1,,,,1,SRW001,31-Aug-2016,,,,, ,0, ,,,Islam,Arabic,Arab,Rif Dimashq,398,399,0,0,0,9
AAASSYR00400,"Aisha Mosque, Damascus",33.4708235,36.28092835,,OSM_Polygon,204137572,OSM_Polygon,Religious Site,,,M010,,,,1,,,,1,SRW001,31-Aug-2016,,,,, ,0, ,,,Islam,Arabic,Arab,Rif Dimashq,399,400,0,0,0,9
AAASSYR00573,Al-Safa Cemetery مقبرة الصفا ,35.1589596004,36.7808154995,,OSM_Polygon,205326635,OSM_Polygon,Cemetery,,,M010,,,,1,,,,1,SRW001,31-Aug-2016,,,,, ,1, ,,,Islam ,Arabic,Arab,,572,573,0,0,0,3
AAASSYR02997,Khallala,35.5292000001,35.8801000003,,Penn,760DGAM2026,Penn,Archaeological Site,,,MD07,,,,1,,,,,SRW001,31-Aug-2016,,,,,,1, ,,,Islam - Alawis,Arabic,Arab,,2996,2997,0,0,0,1
AAASSYR00251,"Sayf ad-Daula Mosque, Aleppo",36.1998571,37.13242805,,OSM_Polygon,203515195,OSM_Polygon,Religious Site,,,M014,,,,1,,,,1,SRW001,31-Aug-2016,,,,, ,0, ,,,Islam (my guess is Sunni),Arabic,Arab,Aleppo,250,251,0,0,0,9
AAASSYR00252,Rashid Mosque,36.1941869,37.1319337,,OSM_Polygon,203515202,OSM_Polygon,Religious Site,,,M014,,,,1,,,,1,SRW001,31-Aug-2016,,,,, ,0, ,,,Islam (my guess is Sunni),Arabic,Arab,Aleppo,251,252,0,0,0,9
AAASSYR02713,Damascus Sabil al-Khaza/ Khudariya School,33.5082610002,36.3028219995,,Penn,760SY0401,Penn,Historic Structure,,,M010,,,,1,,,,,SRW001,31-Aug-2016,,,,, ,1, ,,,Islamic,Arabic,Arab,,2712,2713,0,0,0,5
AAASSYR02746,Aleppo Khan al-Absi,36.1975360004,37.1568420005,,Penn,760SY0689,Penn,Historic Structure,,,M010,,,,1,,,,,SRW001,31-Aug-2016,,,,, ,1, ,,,Islamic,Arabic,Arab,,2745,2746,0,0,0,5
AAASSYR03032,Mufager Gharbi,35.007583001,37.2160870091,,Penn,760DGAM2040,Penn,Archaeological Site,,,M010,,,,1,,,,,SRW001,31-Aug-2016,,,,,,1, ,,,Islamic,Arabic,Arab,,3031,3032,0,0,0,1
AAASSYR02890,Tell Ziyade,36.4112059996,40.8440470002,,Penn,760SY1152,Penn,Archaeological Site,,,,,,,1,,,,,SRW001,31-Aug-2016,,,,,,1, ,,,Islamic,Arabic/Kurdish,Arab/Kurdish,,2889,2890,0,0,0,1
AAASSYR00367,"Abu Dhar al-Ghafari Mosque, Homs",34.73102735,36.7241037,,OSM_Polygon,203921357,OSM_Polygon,Religious Site,,,M015,,,,1,,,,1,SRW001,31-Aug-2016,,,,, ,0, ,,,Shi'i (my guess),Arabic,Arab,Homs,366,367,0,0,0,9
AAASSYR00230,Aleppo Takiya al-Mawlawiye Dervish Monastery,36.2030017,37.15137785,,OSM_Polygon,203436267,Penn,Religious Site,,,M016,,,,1,,,,,SRW001,31-Aug-2016,,,,, ,0, ,,,Sufi,Arabic,Arab,Aleppo,229,230,0,0,1,9
AAASSYR00207,"Al Subhan Mosque, Aleppo (جامع الصبحان)",36.18968685,37.14858555,,OSM_Polygon,203389536,OSM_Polygon,Religious Site,,,M014,,,,1,,,,1,SRW001,31-Aug-2016,,,,, ,0, ,,,Sunni,Arabic,Arab,Aleppo,206,207,0,0,0,9
AAASSYR00458,al-Ahdab Mosque,35.1291111996,36.7516837005,,OSM_Polygon,204509188,OSM_Polygon,Religious Site,,,M014,,,,1,,,,1,SRW001,31-Aug-2016,,,,, ,1, ,,,Sunni,Arabic,Arab,,457,458,0,0,0,9
AAASSYR00472, (Egyptian Mosque) جامع المصري,35.1124907004,36.74858085,,OSM_Polygon,204530307,OSM_Polygon,Religious Site,,,M014,,,,1,,,,1,SRW001,31-Aug-2016,,,,, ,1, ,,,Sunni,Arabic,Arab,,471,472,0,0,0,9
AAASSYR00499,Abdul Rahman bin Auf Mosque,35.1452173502,36.7752056002,,OSM_Polygon,204587376,OSM_Polygon,Religious Site,,,M014,,,,1,,,,1,SRW001,31-Aug-2016,,,,, ,1, ,,,Sunni,Arabic,Arab,,498,499,0,0,0,9
AAASSYR00602,جامع الشهداء Martyrs Mosque,35.9640263997,39.00509085,,OSM_Polygon,205677063,OSM_Polygon,Religious Site,,,M014,,,,1,,,,1,SRW001,31-Aug-2016,,,,,,1, ,,,Sunni,Arabic,Arab,,601,602,0,0,0,9
AAASSYR00768,Mosque Tahla جامع طلحة والزبير,33.5118929497,36.3498409505,,OSM_Polygon,324061969,OSM_Polygon,Religious Site,,,M014,,,,1,,,,1,SRW001,31-Aug-2016,,,,, ,1, ,,,Sunni,Arabic,Arab,,767,768,0,1,0,9
AAASSYR00770,"Al Adnan Mosque جامع العدنان 
",33.5312534496,36.3466196004,,OSM_Polygon,324061971,OSM_Polygon,Religious Site,,,M014,,,,1,,,,1,SRW001,31-Aug-2016,,,,, ,1, ,,,Sunni,Arabic,Arab,,769,770,0,1,0,9
AAASSYR00858,Almasjed Alkabeer,33.5714466001,36.4008423998,,OSM_Polygon,144187803,OSM_Polygon,Religious Site,,,M014,,,,1,,,,1,SRW001,31-Aug-2016,,,,, ,1, ,,,Sunni,Arabic,Arab,,857,858,0,1,0,9
AAASSYR00922,"Al Abrar Mosque, Aleppo",36.1685091502,37.2300622996,,OSM_Polygon,184689255,OSM_Polygon,Religious Site,,,M014,,,,1,,,,1,SRW001,31-Aug-2016,,,,, ,1, ,,,Sunni,Arabic,Arab,,921,922,0,0,0,9
AAASSYR00962,"Onais Alansari, Damascus",33.5212610004,36.2923491003,,OSM_Polygon,219102512,OSM_Polygon,Religious Site,,,M014,,,,1,,,,1,SRW001,31-Aug-2016,,,,, ,1, ,,,Sunni,Arabic,Arab,,961,962,0,1,0,9
AAASSYR00988, ,36.1837102997,37.1224139997,,OSM_Polygon,234731318,OSM_Polygon,Religious Site,,,M014,,,,1,,,,1,SRW001,31-Aug-2016,,,,, ,1, ,,,Sunni,Arabic,Arab,,987,988,0,0,0,9
AAASSYR00989, ,36.1740608001,37.1244190503,,OSM_Polygon,234731518,OSM_Polygon,Religious Site,,,M014,,,,1,,,,1,SRW001,31-Aug-2016,,,,, ,1, ,,,Sunni,Arabic,Arab,,988,989,0,0,0,9
AAASSYR01003,(جامع عثمان بن عفان Othman bin Affan Mosque,36.1938216999,37.1866040001,,OSM_Polygon,235397496,OSM_Polygon,Religious Site,,,M014,,,,1,,,,1,SRW001,31-Aug-2016,,,,, ,1, ,,,Sunni,Arabic,Arab,,1002,1003,0,0,0,9
AAASSYR00016, ,36.5157094499,40.7627930506,,OSM_Polygon,205458657,OSM_Polygon,Cemetery,,,MA11,M014,,,1,,,,1,SRW001,31-Aug-2016,,,,,,1, ,,,Sunni,Kurdish,Kurd,Al Hasakah,15,16,1,0,0,3
AAASSYR00635,Dudiyan Mosque,36.6348385498,37.2862171503,,OSM_Polygon,207403462,OSM_Polygon,Religious Site,,,MA11,M014,,,1,,,,1,SRW001,31-Aug-2016,,,,,,1, ,,,Sunni,Kurdish,Kurd,,634,635,0,0,0,9
AAASSYR00318,"Saladin Mosque, Aleppo",36.2304139,37.14309965,,OSM_Polygon,203656588,OSM_Polygon,Religious Site,,,M014,,,,1,,,,1,SRW001,31-Aug-2016,,,,, ,0, ,,,Sunni (my guess),Arabic/Kurdish (my guess),Kurd (my guess),Aleppo,317,318,0,0,0,9
AAASSYR00088,Sheikh al-Raslan Cemetery,33.5130556997,36.3184310499,,OSM_Polygon,106521301,OSM_Polygon,Cemetery,,,M010,,,,1,,,,1,SRW001,31-Aug-2016,,,,, ,1, ,,,,Arabic,Arab,,87,88,0,0,0,3
AAASSYR00223,,36.1953512,37.1553107,,OSM_Polygon,203435707,OSM_Polygon,Religious Site,,,M010,,,,1,,,,1,SRW001,31-Aug-2016,,,,, ,0, ,,,,Arabic,Arab,,222,223,0,0,0,9
AAASSYR01612,"Religious site, Tadmor",34.5556798996,38.2818947999,,OSM_Points,2356305137,OSM_Points,Religious Site,,,M010,,,,1,,,,1,SRW001,31-Aug-2016,,,,,,1, ,,,,Arabic,Arab,,1611,1612,0,0,0,9
AAASSYR01988,Archaeological Site near Umm Al Adem,34.6972594987,36.5088734936,,OSM_Points,572550145,OSM_Points,Archaeological Site,,,M010,,,,1,,,,1,SRW001,31-Aug-2016,,,,,,1, ,,,,Arabic,Arab,,1987,1988,0,0,0,1
AAASSYR02876,Birat Kaftayn Dead City  (KH has a hard time seeing this one),36.087061,36.6544330002,,Penn,760SY0109,Penn,Archaeological Site,,,M010,,,,1,,,,,SRW001,31-Aug-2016,,,,,,1, ,,,,Arabic,Arab,,2875,2876,0,0,0,1
AAASSYR00100,Gor,37.184087,42.145351551,,OSM_Polygon,118392185,OSM_Polygon,Cemetery,,,MA11,,,,1,,,,1,SRW001,31-Aug-2016,,,,, ,0, ,,,,Kurdish,Kurd,,99,100,0,0,0,3
AAASSYR00106,Gor/ Antarah Cemetery,37.05524565,41.2516639,,OSM_Polygon,119384712,OSM_Polygon,Cemetery,,,MA11,,,,1,,,,1,SRW001,31-Aug-2016,,,,, ,0, ,,,,Kurdish,Kurd,,105,106,0,0,0,3
AAASSYR00107,Gor,37.03712425,41.14543245,,OSM_Polygon,123406604,OSM_Polygon,Cemetery,,,MA11,,,,1,,,,1,SRW001,31-Aug-2016,,,,, ,0, ,,,,Kurdish,Kurd,,106,107,0,0,0,3
AAASSYR00108,Gor,36.94803315,41.3341775,,OSM_Polygon,133434811,OSM_Polygon,Cemetery,,,MA11,,,,1,,,,1,SRW001,31-Aug-2016,,,,, ,0, ,,,,Kurdish,Kurd,,107,108,0,0,0,3
AAASSYR00002, ,33.4822073,36.29265735,,OSM_Polygon,28843903,OSM_Polygon,Cemetery,,,,,,,1,,,,1,SRW001,31-Aug-2016,,,,, ,0, ,,,,,,Damascus,1,2,1,0,0,3
AAASSYR00003, ,33.46103535,36.2336923,,OSM_Polygon,30392078,OSM_Polygon,Cemetery,,,,,,,1,,,,1,SRW001,31-Aug-2016,,,,, ,0, ,,,,,,Darayya,2,3,2,0,0,3
AAASSYR00004, ,36.18908515,37.1642636,,OSM_Polygon,30599840,OSM_Polygon,Cemetery,,,,,,,1,,,,1,SRW001,31-Aug-2016,,,,, ,0, ,,,,,,Aleppo,3,4,1,0,0,3
AAASSYR00005,Aleppo Great Umayyad Mosque,36.19930885,37.1569072,,OSM_Polygon,30644784,Penn,Religious Site,,,,,,,1,,,,,SRW001,31-Aug-2016,,,,, ,0, ,,,,,,Aleppo,4,5,1,0,1,9
AAASSYR00006,Ù…Ù‚Ø¨Ø±Ø© Ø§Ù„Ø§Ø±Ù…Ù† Ø­Ù„Ø¨,36.2273001,37.15502815,,OSM_Polygon,43108129,OSM_Polygon,Cemetery,,,,,,,1,,,,1,SRW001,31-Aug-2016,,,,, ,0, ,,,,,,Aleppo,5,6,3,0,0,3
AAASSYR00007, ,36.1877709502,37.1554843495,,OSM_Polygon,43323411,OSM_Polygon,Cemetery,,,,,,,1,,,,1,SRW001,31-Aug-2016,,,,, ,1, ,,,,,,Aleppo,6,7,1,0,0,3
AAASSYR00008, ,34.73277595,36.72612545,,OSM_Polygon,150212184,OSM_Polygon,Cemetery,,,,,,,1,,,,1,SRW001,31-Aug-2016,,,,, ,0, ,,,,,,Homs‎,7,8,2,0,0,3
AAASSYR00009, ,34.7239941,36.72845225,,OSM_Polygon,150233526,OSM_Polygon,Cemetery,,,,,,,1,,,,1,SRW001,31-Aug-2016,,,,, ,0, ,,,,,,Homs‎,8,9,1,0,0,3
AAASSYR00010, ,36.1940337,37.1523379,,OSM_Polygon,173155736,OSM_Polygon,Cemetery,,,,,,,1,,,,1,SRW001,31-Aug-2016,,,,, ,0, ,,,,,,Aleppo,9,10,1,0,0,3
AAASSYR00011,Aleppo al-Kamiliye Madrasa,36.188821,37.15973575,,OSM_Polygon,203360435,Penn,Religious Site,,,,,,,1,,,,,SRW001,31-Aug-2016,,,,, ,0, ,,,,,,Aleppo,10,11,1,0,1,9
AAASSYR00013,Ø¬Ø§Ù…Ø¹ Ø§Ù„ØºØ²Ø§Ù„ÙŠ,36.21816535,37.1163545,,OSM_Polygon,203521869,OSM_Polygon,Religious Site,,,,,,,1,,,,1,SRW001,31-Aug-2016,,,,, ,0, ,,,,,,Aleppo,12,13,1,0,0,9
AAASSYR00014,Ø¬Ø§Ù…Ø¹ Ø£Ø¨Ùˆ Ø­Ù†ÙŠÙØ© Ø§Ù„Ù†Ø¹Ù…Ø§Ù†,36.2180696,37.1105963,,OSM_Polygon,203649362,OSM_Polygon,Religious Site,,,,,,,1,,,,1,SRW001,31-Aug-2016,,,,, ,0, ,,,,,,Aleppo,13,14,1,0,0,9
AAASSYR00015,Ø¬Ø§Ù…Ø¹ Ø§Ù„Ø¹Ø¨Ø§Ø³,36.22593955,37.2030486,,OSM_Polygon,203805287,OSM_Polygon,Religious Site,,,,,,,1,,,,1,SRW001,31-Aug-2016,,,,, ,0, ,,,,,,Aleppo,14,15,1,0,0,9
AAASSYR00017, ,37.1093523,41.1036608,,OSM_Polygon,240222369,OSM_Polygon,Religious Site,,,,,,,1,,,,1,SRW001,31-Aug-2016,,,,, ,0, ,,,,,,,16,17,1,0,0,9
AAASSYR00018, ,36.86909525,38.34623075,,OSM_Polygon,307834430,OSM_Polygon,Cemetery,,,,,,,1,,,,1,SRW001,31-Aug-2016,,,,, ,0, ,,,,,,,17,18,2,0,0,3
AAASSYR00019,Damascus Maktab Anbar,33.5098611,36.3095879,,OSM_Polygon,318293970,Penn,Museum,,,,,,,1,,,,,SRW001,31-Aug-2016,,,,, ,0, ,,,,,,Damascus,18,19,1,1,1,8
AAASSYR00020, ,35.5276251,35.78135025,,OSM_Polygon,82124202,OSM_Polygon,Cemetery,,,,,,,1,,,,1,SRW001,31-Aug-2016,,,,, ,0, ,,,,,,Latakia,19,20,1,0,0,3
AAASSYR00021,Palmyra,34.5518511,38.2610033,,OSM_Polygon,91460784,Penn,Archaeological Site,,,,,,,1,,,,,SRW001,31-Aug-2016,,,,, ,0, ,,,,,,Palmyra,20,21,6,37,1,1
AAASSYR00022, ,34.7294754,36.73979605,,OSM_Polygon,150222159,OSM_Polygon,Religious Site,,,,,,,1,,,,1,SRW001,31-Aug-2016,,,,, ,0, ,,,,,,,21,22,1,0,0,9
AAASSYR00023,Apamea Ancient City Area,35.4206581,36.40111505,,OSM_Polygon,171784870,Penn,Archaeological Site,,,,,,,1,,,,,SRW001,31-Aug-2016,,,,, ,0, ,,,,,,,22,23,1,0,1,1
AAASSYR00024,Aleppo Citadel,36.1992958,37.1629393,,OSM_Polygon,172282698,Penn,Archaeological Site,,,,,,,1,,,,,SRW001,31-Aug-2016,,,,, ,0, ,,,,,,,23,24,2,2,1,1
AAASSYR00025,Cyrrhus (Hagiopolis) Ancient Ruins,36.74500875,36.95955655,,OSM_Polygon,183192421,Penn,Archaeological Site,,,,,,,1,,,,,SRW001,31-Aug-2016,,,,, ,0, ,,,,,,,24,25,2,0,1,1
AAASSYR00026, ,35.33269105,40.1408489,,OSM_Polygon,204871637,OSM_Polygon,Monument,,,,,,,1,,,,1,SRW001,31-Aug-2016,,,,, ,0, ,,,,,,,25,26,2,0,0,7
AAASSYR00027,Qasr al-Hayr al-Sharqi (East),35.0740321,39.07164965,,OSM_Polygon,226869847,Penn,Archaeological Site,,,,,,,1,,,,,SRW001,31-Aug-2016,,,,, ,0, ,,,,,,,26,27,1,0,1,1
AAASSYR00028,Ø¬Ø§Ù…Ø¹ Ø¹Ø¨Ø¯ Ø§Ù„Ù„Ù‡ Ø¨Ù† Ø§Ù„Ø¹Ø¨Ø§Ø³,36.20110955,37.11117985,,OSM_Polygon,310736992,OSM_Polygon,Religious Site,,,,,,,1,,,,1,SRW001,31-Aug-2016,,,,, ,0, ,,,,,,,27,28,3,0,0,9
AAASSYR00030,Andarin (Androna),35.533649,37.361669,,OSM_Polygon,330829496,Penn,Archaeological Site,,,,,,,1,,,,,SRW001,31-Aug-2016,,,,, ,0, ,,,,,,,29,30,2,0,1,1
AAASSYR00031,Tell Jindires (Gindarus),36.38637405,36.689118151,,OSM_Polygon,331326168,Penn,Archaeological Site,,,,,,,1,,,,,SRW001,31-Aug-2016,,,,, ,0, ,,,,,,,30,31,2,1,1,1
AAASSYR00032, ,33.4971443,36.28208245,,OSM_Polygon,29214412,OSM_Polygon,Cemetery,,,,,,,1,,,,1,SRW001,31-Aug-2016,,,,, ,0, ,,,,,,,31,32,0,0,0,3
AAASSYR00033, ,33.5064794496,36.2576667007,,OSM_Polygon,29227482,OSM_Polygon,Cemetery,,,,,,,1,,,,1,SRW001,31-Aug-2016,,,,,,2, ,,,,,,,32,33,0,0,0,3
AAASSYR00034, ,33.4887011,36.2977069,,OSM_Polygon,29262196,OSM_Polygon,Cemetery,,,,,,,1,,,,1,SRW001,31-Aug-2016,,,,, ,0, ,,,,,,,33,34,0,0,0,3
AAASSYR00035, ,33.4956175,36.30000345,,OSM_Polygon,29263227,OSM_Polygon,Cemetery,,,,,,,1,,,,1,SRW001,31-Aug-2016,,,,, ,0, ,,,,,,,34,35,0,0,0,3
AAASSYR00036,Damascus Bab al-Saghir Cemetery,33.5036021,36.30403015,,OSM_Polygon,29263292,Penn,Cemetery,,,,,,,1,,,,,SRW001,31-Aug-2016,,,,, ,0, ,,,,,,,35,36,0,0,2,3
AAASSYR00037,Ù…Ù‚Ø¨Ø±Ø© Ù‚Ø¯Ø³ÙŠØ§,33.54551195,36.2136161,,OSM_Polygon,29270323,OSM_Polygon,Cemetery,,,,,,,1,,,,1,SRW001,31-Aug-2016,,,,, ,0, ,,,,,,,36,37,0,0,0,3
AAASSYR00038, ,33.50448555,36.31744455,,OSM_Polygon,29316847,OSM_Polygon,Cemetery,,,,,,,1,,,,1,SRW001,31-Aug-2016,,,,, ,0, ,,,,,,,37,38,0,1,0,3
AAASSYR00039, ,33.5384796,36.24566125,,OSM_Polygon,29320471,OSM_Polygon,Cemetery,,,,,,,1,,,,1,SRW001,31-Aug-2016,,,,, ,0, ,,,,,,,38,39,0,0,0,3
AAASSYR00040, ,33.5993977,36.3119259,,OSM_Polygon,29321577,OSM_Polygon,Cemetery,,,,,,,1,,,,1,SRW001,31-Aug-2016,,,,, ,0, ,,,,,,,39,40,0,0,0,3
AAASSYR00041,Damascus Commonwealth War Cemetery,33.4968169,36.2530206,,OSM_Polygon,29548234,OSM_Polygon,Cemetery,,,,,,,1,,,,1,SRW001,31-Aug-2016,,,,, ,0, ,,,,,,,40,41,0,0,0,3
AAASSYR00042, ,33.5307081,36.285756,,OSM_Polygon,30163869,OSM_Polygon,Cemetery,,,,,,,1,,,,1,SRW001,31-Aug-2016,,,,, ,0, ,,,,,,,41,42,0,0,0,3
AAASSYR00043, ,33.52770885,36.2822748,,OSM_Polygon,30284047,OSM_Polygon,Cemetery,,,,,,,1,,,,1,SRW001,31-Aug-2016,,,,, ,0, ,,,,,,,42,43,0,0,0,3
AAASSYR00044, ,33.50754365,36.4874757,,OSM_Polygon,30316113,OSM_Polygon,Cemetery,,,,,,,1,,,,1,SRW001,31-Aug-2016,,,,, ,0, ,,,,,,,43,44,0,0,0,3
AAASSYR00045, ,33.57460115,36.3008408,,OSM_Polygon,30391102,OSM_Polygon,Cemetery,,,,,,,1,,,,1,SRW001,31-Aug-2016,,,,, ,0, ,,,,,,,44,45,0,0,0,3
AAASSYR00046, ,33.46154015,36.199772001,,OSM_Polygon,30391275,OSM_Polygon,Cemetery,,,,,,,1,,,,1,SRW001,31-Aug-2016,,,,, ,0, ,,,,,,,45,46,0,0,0,3
AAASSYR00047, ,33.47070045,36.28870355,,OSM_Polygon,30406693,OSM_Polygon,Cemetery,,,,,,,1,,,,1,SRW001,31-Aug-2016,,,,, ,0, ,,,,,,,46,47,0,0,0,3
AAASSYR00048, ,33.54029725,36.2976837,,OSM_Polygon,30480852,OSM_Polygon,Cemetery,,,,,,,1,,,,1,SRW001,31-Aug-2016,,,,, ,0, ,,,,,,,47,48,0,0,0,3
AAASSYR00049, ,33.5535615,36.3606951,,OSM_Polygon,30482117,OSM_Polygon,Cemetery,,,,,,,1,,,,1,SRW001,31-Aug-2016,,,,, ,0, ,,,,,,,48,49,0,0,0,3
AAASSYR00050,Ù…Ù‚Ø¨Ø±Ø© Ù…Ø­Ù…Ø¯ Ø¨ÙŠÙƒ,36.19217805,37.17514155,,OSM_Polygon,30599722,OSM_Polygon,Cemetery,,,,,,,1,,,,1,SRW001,31-Aug-2016,,,,, ,0, ,,,,,,,49,50,0,0,0,3
AAASSYR00051,Ù…Ù‚Ø¨Ø±Ø© Ø¨Ø§Ø¨ Ø§Ù„Ù†ÙŠØ±Ø¨,36.19244585,37.1733563,,OSM_Polygon,30599741,OSM_Polygon,Cemetery,,,,,,,1,,,,1,SRW001,31-Aug-2016,,,,, ,0, ,,,,,,,50,51,0,0,0,3
AAASSYR00052,Ù…Ù‚Ø¨Ø±Ø©,36.18351935,37.160249,,OSM_Polygon,30644860,OSM_Polygon,Cemetery,,,,,,,1,,,,1,SRW001,31-Aug-2016,,,,, ,0, ,,,,,,,51,52,0,0,0,3
AAASSYR00053,Ø¬Ø§Ù…Ø¹ Ø§Ù„Ø¹Ø«Ù…Ø§Ù†,33.5263721,36.2941046,,OSM_Polygon,30719301,OSM_Polygon,Religious Site,,,,,,,1,,,,1,SRW001,31-Aug-2016,,,,, ,0, ,,,,,,,52,53,0,0,0,9
AAASSYR00054,Ø§Ù„Ù…Ù†ØµÙˆØ±,33.4973448,36.2944751,,OSM_Polygon,30749843,OSM_Polygon,Religious Site,,,,,,,1,,,,1,SRW001,31-Aug-2016,,,,, ,0, ,,,,,,,53,54,0,1,0,9
AAASSYR00055, ,33.49246095,36.24635445,,OSM_Polygon,30752705,OSM_Polygon,Religious Site,,,,,,,1,,,,1,SRW001,31-Aug-2016,,,,, ,0, ,,,,,,,54,55,0,0,0,9
AAASSYR00056, ,33.4528025,36.2376263,,OSM_Polygon,30905912,OSM_Polygon,Cemetery,,,,,,,1,,,,1,SRW001,31-Aug-2016,,,,, ,0, ,,,,,,,55,56,0,0,0,3
AAASSYR00057, ,33.555651,36.363704251,,OSM_Polygon,31174001,OSM_Polygon,Religious Site,,,,,,,1,,,,1,SRW001,31-Aug-2016,,,,, ,0, ,,,,,,,56,57,0,0,0,9
AAASSYR00058, ,33.53172105,36.23302935,,OSM_Polygon,31619617,OSM_Polygon,Religious Site,,,,,,,1,,,,1,SRW001,31-Aug-2016,,,,, ,0, ,,,,,,,57,58,0,0,0,9
AAASSYR00059, ,33.53551255,36.36789145,,OSM_Polygon,32074582,OSM_Polygon,Cemetery,,,,,,,1,,,,1,SRW001,31-Aug-2016,,,,, ,0, ,,,,,,,58,59,0,0,0,3
AAASSYR00060, ,33.46154925,36.3077485,,OSM_Polygon,32266434,OSM_Polygon,Cemetery,,,,,,,1,,,,1,SRW001,31-Aug-2016,,,,, ,0, ,,,,,,,59,60,0,0,0,3
AAASSYR00061,Ø¬Ø§Ù…Ø¹ Ø¹Ù…Ø± Ø¨Ù† Ø¹Ø¨Ø¯ Ø§Ù„Ø¹Ø²ÙŠØ²,33.54500045,36.2150736,,OSM_Polygon,33386987,OSM_Polygon,Religious Site,,,,,,,1,,,,1,SRW001,31-Aug-2016,,,,, ,0, ,,,,,,,60,61,0,0,0,9
AAASSYR00062,Al-Oumari Mosque,33.54720075,36.21454685,,OSM_Polygon,33387244,OSM_Polygon,Religious Site,,,,,,,1,,,,1,SRW001,31-Aug-2016,,,,, ,0, ,,,,,,,61,62,0,0,0,9
AAASSYR00063,Al-Faisal Mosque,33.5467667,36.20795295,,OSM_Polygon,34150235,OSM_Polygon,Religious Site,,,,,,,1,,,,1,SRW001,31-Aug-2016,,,,, ,0, ,,,,,,,62,63,0,1,0,9
AAASSYR00064,Al-Mouhamadi Mosque,33.5478886,36.22060995,,OSM_Polygon,34288386,OSM_Polygon,Religious Site,,,,,,,1,,,,1,SRW001,31-Aug-2016,,,,, ,0, ,,,,,,,63,64,0,0,0,9
AAASSYR00065,Ù…Ù‚Ø¨Ø±Ø© Ø¬Ø¨Ù„ Ø§Ù„Ø¹Ø¸Ø§Ù…,36.20985655,37.1671291,,OSM_Polygon,43105758,OSM_Polygon,Cemetery,,,,,,,1,,,,1,SRW001,31-Aug-2016,,,,, ,0, ,,,,,,,64,65,0,0,0,3
AAASSYR00066,Ù…Ù‚Ø¨Ø±Ø© ÙƒØ±Ø² Ø¯Ø§Ø¯Ø§,36.2025481,37.1762916,,OSM_Polygon,43105813,OSM_Polygon,Cemetery,,,,,,,1,,,,1,SRW001,31-Aug-2016,,,,, ,0, ,,,,,,,65,66,0,0,0,3
AAASSYR00067,Ù…Ù‚Ø¨Ø±Ø© Ø§Ù„Ø´ÙŠØ® ÙŠÙˆØ³Ù,36.2075084,37.1779481,,OSM_Polygon,43105827,OSM_Polygon,Cemetery,,,,,,,1,,,,1,SRW001,31-Aug-2016,,,,, ,0, ,,,,,,,66,67,0,0,0,3
AAASSYR00068,Ø§Ù„Ù…Ù‚Ø¨Ø±Ø© Ø§Ù„ÙØ±Ù†Ø³ÙŠØ© Ø§Ù„Ø¹Ø³ÙƒØ±ÙŠØ©,36.2258568,37.1595557,,OSM_Polygon,43133599,OSM_Polygon,Cemetery,,,,,,,1,,,,1,SRW001,31-Aug-2016,,,,, ,0, ,,,,,,,67,68,0,0,0,3
AAASSYR00069, ,33.59461595,36.4356632,,OSM_Polygon,45204542,OSM_Polygon,Cemetery,,,,,,,1,,,,1,SRW001,31-Aug-2016,,,,, ,0, ,,,,,,,68,69,0,0,0,3
AAASSYR00070, ,35.32134845,40.127794651,,OSM_Polygon,57376730,OSM_Polygon,Cemetery,,,,,,,1,,,,1,SRW001,31-Aug-2016,,,,, ,0, ,,,,,,,69,70,0,0,0,3
AAASSYR00071,Qal'at ibn Maan,34.56262235,38.2570734,,OSM_Polygon,91456471,Penn,Archaeological Site,,,,,,,1,,,,,SRW001,31-Aug-2016,,,,, ,0, ,,,,,,,70,71,0,0,1,1
AAASSYR00072, ,34.5642831,38.277064349,,OSM_Polygon,91459223,OSM_Polygon,Cemetery,,,,,,,1,,,,1,SRW001,31-Aug-2016,,,,, ,0, ,,,,,,,71,72,0,0,0,3
AAASSYR00073,Daraa National Museum,32.6246559,36.11553645,,OSM_Polygon,92749454,Penn,Museum,,,,,,,1,,,,,SRW001,31-Aug-2016,,,,, ,0, ,,,,,,,72,73,0,0,1,8
AAASSYR00074,Ù…Ù‚Ø¨Ø±Ø© Ø§Ù„Ø¹Ø¨Ø§Ø³ÙŠØ©,32.6148608004,36.1041453501,,OSM_Polygon,93174683,OSM_Polygon,Cemetery,,,,,,,1,,,,1,SRW001,31-Aug-2016,,,,, ,2, ,,,,,,,73,74,0,1,0,3
AAASSYR00075, ,32.6014779,36.0956921,,OSM_Polygon,93251743,OSM_Polygon,Cemetery,,,,,,,1,,,,1,SRW001,31-Aug-2016,,,,, ,0, ,,,,,,,74,75,0,1,0,3
AAASSYR00076, ,32.5142568,36.47793715,,OSM_Polygon,93813994,OSM_Polygon,Religious Site,,,,,,,1,,,,1,SRW001,31-Aug-2016,,,,, ,0, ,,,,,,,75,76,0,0,0,9
AAASSYR00077,Ø§Ù„Ù…Ù‚Ø¨Ø±Ø© Ø§Ù„Ù‚Ø¯ÙŠÙ…Ø©,33.0132044,36.13059885,,OSM_Polygon,98666721,OSM_Polygon,Cemetery,,,,,,,1,,,,1,SRW001,31-Aug-2016,,,,, ,0, ,,,,,,,76,77,0,1,0,3
AAASSYR00078,Ø§Ù„Ù…Ø±ÙƒØ² Ø§Ù„Ø«Ù‚Ø§ÙÙŠ,32.99429445,36.06923075,,OSM_Polygon,99199642,OSM_Polygon,Library,,,,,,,1,,,,1,SRW001,31-Aug-2016,,,,, ,0, ,,,,,,,77,78,0,0,0,6
AAASSYR00079,Damascus Beit Pasha al-Azem Palace and Museum of Arts and Popular Traditions,33.51016615,36.30689165,,OSM_Polygon,102768609,Penn,Museum,,,,,,,1,,,,,SRW001,31-Aug-2016,,,,, ,0, ,,,,,,,78,79,0,0,1,8
AAASSYR00080, ,32.7101599,36.56794205,,OSM_Polygon,103168626,OSM_Polygon,Religious Site,,,,,,,1,,,,1,SRW001,31-Aug-2016,,,,, ,0, ,,,,,,,79,80,0,0,0,9
AAASSYR00081,Ù…Ù‚Ø¨Ø±Ø© Ø§Ù„Ù†Ø§ØµØ±Ø©,34.7933212,36.28815535,,OSM_Polygon,104123283,OSM_Polygon,Cemetery,,,,,,,1,,,,1,SRW001,31-Aug-2016,,,,, ,0, ,,,,,,,80,81,0,0,0,3
AAASSYR00082,Ø¹ÙŠÙ† Ø§Ù„Ø²Ù…Ø§Ù†,32.70037825,36.56396955,,OSM_Polygon,104177224,OSM_Polygon,Religious Site,,,,,,,1,,,,1,SRW001,31-Aug-2016,,,,, ,0, ,,,,,,,81,82,0,0,0,9
AAASSYR00083,Ù…Ù‚Ø¨Ø±Ø©,33.7418302,36.69888105,,OSM_Polygon,104819878,OSM_Polygon,Cemetery,,,,,,,1,,,,1,SRW001,31-Aug-2016,,,,, ,0, ,,,,,,,82,83,0,0,0,3
AAASSYR00084,Ù…Ø¯Ø§ÙÙ† Ø§Ù„Ø³Ù‡ÙˆØ©,32.6291205,36.60967455,,OSM_Polygon,104865295,OSM_Polygon,Cemetery,,,,,,,1,,,,1,SRW001,31-Aug-2016,,,,, ,0, ,,,,,,,83,84,0,1,0,3
AAASSYR00085, ,32.5374425,36.2004979,,OSM_Polygon,105665585,OSM_Polygon,Religious Site,,,,,,,1,,,,1,SRW001,31-Aug-2016,,,,, ,0, ,,,,,,,84,85,0,0,0,9
AAASSYR00086,ÙƒÙ†ÙŠØ³Ø© Ø§Ù„ÙƒÙŠØ±Ù„Ø³,33.5181562,36.3173171,,OSM_Polygon,106520834,OSM_Polygon,Religious Site,,,,,,,1,,,,1,SRW001,31-Aug-2016,,,,, ,0, ,,,,,,,85,86,0,0,0,9
AAASSYR00087,ÙƒÙ†ÙŠØ³Ø© Ø§Ù„ØµÙ„ÙŠØ¨ Ø§Ù„Ù…Ù‚Ø¯Ø³,33.51717635,36.31855065,,OSM_Polygon,106521199,OSM_Polygon,Religious Site,,,,,,,1,,,,1,SRW001,31-Aug-2016,,,,, ,0, ,,,,,,,86,87,0,0,0,9
AAASSYR00089,ÙƒÙ†ÙŠØ³Ø© ÙŠØ³ÙˆØ¹ Ù†ÙˆØ± Ø§Ù„Ø¹Ø§Ù„Ù…,33.5219596,36.31375815,,OSM_Polygon,107631233,OSM_Polygon,Religious Site,,,,,,,1,,,,1,SRW001,31-Aug-2016,,,,, ,0, ,,,,,,,88,89,0,0,0,9
AAASSYR00090,ÙƒÙ†ÙŠØ³Ø© ÙØ§Ø·Ù…Ø©,33.521774,36.31418255,,OSM_Polygon,107631234,OSM_Polygon,Religious Site,,,,,,,1,,,,1,SRW001,31-Aug-2016,,,,, ,0, ,,,,,,,89,90,0,0,0,9
AAASSYR00091,Ù…Ù‚Ø¨Ø±Ø© Ù‚Ø§Ø±Ø©,34.15494215,36.74122315,,OSM_Polygon,109022107,OSM_Polygon,Cemetery,,,,,,,1,,,,1,SRW001,31-Aug-2016,,,,, ,0, ,,,,,,,90,91,0,0,0,3
AAASSYR00092,Ù…Ù‚Ø¨Ø±Ø© ÙƒÙ†Ø§ÙƒØ±,32.6746436,36.543456,,OSM_Polygon,111505906,OSM_Polygon,Cemetery,,,,,,,1,,,,1,SRW001,31-Aug-2016,,,,, ,0, ,,,,,,,91,92,0,0,0,3
AAASSYR00093,Ø¬Ø§Ù…Ø¹ Ø²ÙŠÙ† Ø§Ù„Ø¹Ø§Ø¨Ø¯ÙŠÙ†,37.05177035,41.2225928,,OSM_Polygon,112718116,OSM_Polygon,Religious Site,,,,,,,1,,,,1,SRW001,31-Aug-2016,,,,, ,0, ,,,,,,,92,93,0,0,0,9
AAASSYR00094,GorÃªn Keldan,37.04547115,41.22230955,,OSM_Polygon,114025849,OSM_Polygon,Cemetery,,,,,,,1,,,,1,SRW001,31-Aug-2016,,,,, ,0, ,,,,,,,93,94,0,0,0,3
AAASSYR00095,Goristan,37.04720735,41.2017078,,OSM_Polygon,114127526,OSM_Polygon,Cemetery,,,,,,,1,,,,1,SRW001,31-Aug-2016,,,,, ,0, ,,,,,,,94,95,0,0,0,3
AAASSYR00096,Goren Qedurbik,37.06184665,41.2325205,,OSM_Polygon,114200448,OSM_Polygon,Cemetery,,,,,,,1,,,,1,SRW001,31-Aug-2016,,,,, ,0, ,,,,,,,95,96,0,0,0,3
AAASSYR00097,Goristan,37.06347975,41.22928605,,OSM_Polygon,114200686,OSM_Polygon,Cemetery,,,,,,,1,,,,1,SRW001,31-Aug-2016,,,,, ,0, ,,,,,,,96,97,0,0,0,3
AAASSYR00098,Ù…Ø¯Ø§ÙÙ† Ø´Ù‡Ø¨Ø§,32.8830787,36.62381015,,OSM_Polygon,115654586,OSM_Polygon,Cemetery,,,,,,,1,,,,1,SRW001,31-Aug-2016,,,,, ,0, ,,,,,,,97,98,0,0,0,3
AAASSYR00099,Goren XecukÃª,36.91452205,41.0986169,,OSM_Polygon,117568256,OSM_Polygon,Cemetery,,,,,,,1,,,,1,SRW001,31-Aug-2016,,,,, ,0, ,,,,,,,98,99,0,0,0,3
AAASSYR00102,Dayr Atiyah Cemetery 5,34.1014425,36.76889325,,OSM_Polygon,119059328,OSM_Polygon,Cemetery,,,,,,,1,,,,1,SRW001,31-Aug-2016,,,,, ,0, ,,,,,,,101,102,0,0,0,3
AAASSYR00103,"Cemetery, Al Nabk",34.0228652,36.73215215,,OSM_Polygon,119260515,OSM_Polygon,Cemetery,,,,,,,1,,,,1,SRW001,31-Aug-2016,,,,, ,0, ,,,,,,,102,103,0,0,0,3
AAASSYR00104,"Cemetery, Al Nabk",34.0220004,36.73755035,,OSM_Polygon,119260682,OSM_Polygon,Cemetery,,,,,,,1,,,,1,SRW001,31-Aug-2016,,,,, ,0, ,,,,,,,103,104,0,0,0,3
AAASSYR00105,"Cemetery, Al Nabk",34.0257573,36.73784005,,OSM_Polygon,119261985,OSM_Polygon,Cemetery,,,,,,,1,,,,1,SRW001,31-Aug-2016,,,,, ,0, ,,,,,,,104,105,0,0,0,3
AAASSYR00111,Al Arfi Mosque,35.3284201,40.13529215,,OSM_Polygon,145093369,OSM_Polygon,Religious Site,,,,,,,1,,,,1,SRW001,31-Aug-2016,,,,, ,0, ,,,,,,,110,111,0,0,0,9
AAASSYR00112,Al-Khud'ur Shrine,32.4302535,36.8057631,,OSM_Polygon,145124630,OSM_Polygon,Religious Site,,,,,,,1,,,,1,SRW001,31-Aug-2016,,,,, ,0, ,,,,,,,111,112,0,0,0,9
AAASSYR00113,Morroccan Imam Cemetery ( الإمام المغربي),35.51786415,35.78479655,,OSM_Polygon,145125972,OSM_Polygon,Cemetery,,,,,,,1,,,,1,SRW001,31-Aug-2016,,,,, ,0, ,,,,,,,112,113,0,0,0,3
AAASSYR00114,"Cemetery, Latakia",35.55857625,35.79206325,,OSM_Polygon,145178178,OSM_Polygon,Cemetery,,,,,,,1,,,,1,SRW001,31-Aug-2016,,,,, ,0, ,,,,,,Latakia,113,114,0,0,0,3
AAASSYR00115,"Cemetery, al Qamishli",36.89181445,41.2422696,,OSM_Polygon,147733548,OSM_Polygon,Cemetery,,,,,,,1,,,,1,SRW001,31-Aug-2016,,,,, ,0, ,,,,,,,114,115,0,0,0,3
AAASSYR00116,Farm Mosque (مسجد مزرعة),34.8238036497,40.6776848995,,OSM_Polygon,148398915,OSM_Polygon,Religious Site,,,,,,,1,,,,1,SRW001,31-Aug-2016,,,,,,77, ,,,,,,,115,116,0,0,0,9
AAASSYR00117,Abu Ayoop Alansari Mosque,34.81931315,40.68515175,,OSM_Polygon,148398916,OSM_Polygon,Religious Site,,,,,,,1,,,,1,SRW001,31-Aug-2016,,,,, ,0, ,,,,,,,116,117,0,0,0,9
AAASSYR00118,Imam Ali Mosque,34.70266285,36.7277582,,OSM_Polygon,150004703,OSM_Polygon,Religious Site,,,,,,,1,,,,1,SRW001,31-Aug-2016,,,,, ,0, ,,,,,,,117,118,0,0,0,9
AAASSYR00120,"Mosque, Homs",34.7152383,36.735748,,OSM_Polygon,150154848,OSM_Polygon,Religious Site,,,,,,,1,,,,1,SRW001,31-Aug-2016,,,,, ,0, ,,,,,,Homs,119,120,0,0,0,9
AAASSYR00121,"Mosque, Homs",34.7141436,36.72969585,,OSM_Polygon,150154849,OSM_Polygon,Religious Site,,,,,,,1,,,,1,SRW001,31-Aug-2016,,,,, ,0, ,,,,,,Homs,120,121,0,0,0,9
AAASSYR00122,"Cemetery, Homs",34.73361025,36.72045405,,OSM_Polygon,150212185,OSM_Polygon,Cemetery,,,,,,,1,,,,1,SRW001,31-Aug-2016,,,,, ,0, ,,,,,,Homs,121,122,0,0,0,3
AAASSYR00123,Homs Khalid Ibn al-Walid Mosque and Mausoleum,34.73660195,36.71564755,,OSM_Polygon,150212190,Penn,Religious Site,,,,,,,1,,,,,SRW001,31-Aug-2016,,,,, ,0, ,,,,,,Homs,122,123,0,0,1,9
AAASSYR00124,Jadar Tayer Mosque (مسجد أبناء جعفر الطيار),34.72359865,36.727669,,OSM_Polygon,150233503,OSM_Polygon,Religious Site,,,,,,,1,,,,1,SRW001,31-Aug-2016,,,,, ,0, ,,,,,,,123,124,0,0,0,9
AAASSYR00125,Ad Droubi Mosque,34.7279574,36.70790225,,OSM_Polygon,150242911,OSM_Polygon,Religious Site,,,,,,,1,,,,1,SRW001,31-Aug-2016,,,,, ,0, ,,,,,,,124,125,0,0,0,9
AAASSYR00126,"Mosque, Homs",34.7312187,36.74556785,,OSM_Polygon,150263732,OSM_Polygon,Religious Site,,,,,,,1,,,,1,SRW001,31-Aug-2016,,,,, ,0, ,,,,,,Homs,125,126,0,0,0,9
AAASSYR00127,"Cemetery, Homs",34.72116755,36.7163703,,OSM_Polygon,150268920,OSM_Polygon,Cemetery,,,,,,,1,,,,1,SRW001,31-Aug-2016,,,,, ,0, ,,,,,,Homs,126,127,0,0,0,3
AAASSYR00128,"Cemetery, Baba Amr, Homs",34.71208625,36.688000601,,OSM_Polygon,150268921,OSM_Polygon,Cemetery,,,,,,,1,,,,1,SRW001,31-Aug-2016,,,,, ,0, ,,,,,,Homs,127,128,0,0,0,3
AAASSYR00129,"Field Cemetery, Homs (مقبرة الميدان)",34.7245134,36.7102123,,OSM_Polygon,150268924,OSM_Polygon,Cemetery,,,,,,,1,,,,1,SRW001,31-Aug-2016,,,,, ,0, ,,,,,,Homs,128,129,0,0,0,3
AAASSYR00130,Abdul Aziz Mosque,34.72375975,36.73252035,,OSM_Polygon,150294913,OSM_Polygon,Religious Site,,,,,,,1,,,,1,SRW001,31-Aug-2016,,,,, ,0, ,,,,,,,129,130,0,0,0,9
AAASSYR00131,"Qobaa Mosque, Homs",34.71942915,36.69593135,,OSM_Polygon,150306830,OSM_Polygon,Religious Site,,,,,,,1,,,,1,SRW001,31-Aug-2016,,,,, ,0, ,,,,,,Homs,130,131,0,0,0,9
AAASSYR00132,"Omari Mosque, Homs",34.7390148,36.6752181,,OSM_Polygon,150456827,OSM_Polygon,Religious Site,,,,,,,1,,,,1,SRW001,31-Aug-2016,,,,, ,0, ,,,,,,Homs,131,132,0,0,0,9
AAASSYR00133,"Mosque, Abil",34.63809165,36.6779432,,OSM_Polygon,150473367,OSM_Polygon,Religious Site,,,,,,,1,,,,1,SRW001,31-Aug-2016,,,,, ,0, ,,,,,,,132,133,0,0,0,9
AAASSYR00135,"Mosque, Maskanah",34.6630465003,36.7340601004,,OSM_Polygon,150596375,OSM_Polygon,Religious Site,,,,,,,1,,,,1,SRW001,31-Aug-2016,,,,, ,2, ,,,,,,,134,135,0,0,0,9
AAASSYR00136,"Moque of Ibn al-Khatteb, Kafr Aya",34.6857479,36.6895137,,OSM_Polygon,150601866,OSM_Polygon,Religious Site,,,,,,,1,,,,1,SRW001,31-Aug-2016,,,,, ,0, ,,,,,,,135,136,0,0,0,9
AAASSYR00137,"Mosque, Homs",34.7274440004,36.7136952497,,OSM_Polygon,150605373,OSM_Polygon,Religious Site,,,,,,,1,,,,1,SRW001,31-Aug-2016,,,,, ,2, ,,,,,,Homs,136,137,0,0,0,9
AAASSYR00138,"Mosque, Homs",34.70960355,36.73304065,,OSM_Polygon,150606851,OSM_Polygon,Religious Site,,,,,,,1,,,,1,SRW001,31-Aug-2016,,,,, ,0, ,,,,,,Homs,137,138,0,0,0,9
AAASSYR00139,"Alfordaws Cemetery, Homs",34.72631565,36.7530096,,OSM_Polygon,150677313,OSM_Polygon,Cemetery,,,,,,,1,,,,1,SRW001,31-Aug-2016,,,,, ,0, ,,,,,,Homs,138,139,0,0,0,3
AAASSYR00140,"Abu Bakr Mosque, Homs",34.75256435,36.7448643,,OSM_Polygon,151225191,OSM_Polygon,Religious Site,,,,,,,1,,,,1,SRW001,31-Aug-2016,,,,, ,0, ,,,,,,Homs,139,140,0,0,0,9
AAASSYR00141,"Cemetery, Al Qusayr (مقبرة المسلمين)",34.50503975,36.58245395,,OSM_Polygon,151354454,OSM_Polygon,Cemetery,,,,,,,1,,,,1,SRW001,31-Aug-2016,,,,, ,0, ,,,,,,,140,141,0,0,0,3
AAASSYR00142,Shamsi Basha Mosque,34.74374105,36.7113071,,OSM_Polygon,151703695,OSM_Polygon,Religious Site,,,,,,,1,,,,1,SRW001,31-Aug-2016,,,,, ,0, ,,,,,,,141,142,0,1,0,9
AAASSYR00143,"Mosque of Abu Abdeen, Damascus",33.53370165,36.29928405,,OSM_Polygon,152014295,OSM_Polygon,Religious Site,,,,,,,1,,,,1,SRW001,31-Aug-2016,,,,, ,0, ,,,,,,,142,143,0,0,0,9
AAASSYR00144,"Great Mosque, Salamiyeh (المسجد الكبير)",35.01212775,37.05205,,OSM_Polygon,152551630,OSM_Polygon,Religious Site,,,,,,,1,,,,1,SRW001,31-Aug-2016,,,,, ,0, ,,,,,,,143,144,0,0,0,9
AAASSYR00145,"Cemetery, Damascus",33.5035037,36.29698135,,OSM_Polygon,153180203,OSM_Polygon,Cemetery,,,,,,,1,,,,1,SRW001,31-Aug-2016,,,,, ,0, ,,,,,,Rif Dimashq,144,145,0,0,0,3
AAASSYR00146,Salkhad Cemetry,32.47021985,36.71923795,,OSM_Polygon,155003197,OSM_Polygon,Cemetery,,,,,,,1,,,,1,SRW001,31-Aug-2016,,,,, ,0, ,,,,,,,145,146,0,0,0,3
AAASSYR00147,"Central Library, Aleppo",36.2092087,37.122782351,,OSM_Polygon,155375554,OSM_Polygon,Library,,,,,,,1,,,,1,SRW001,31-Aug-2016,,,,, ,0, ,,,,,,Aleppo,146,147,0,0,0,6
AAASSYR00148,"Aleppo University Book Story, Aleppo",36.2110312,37.125114851,,OSM_Polygon,155375557,OSM_Polygon,Library,,,,,,,1,,,,1,SRW001,31-Aug-2016,,,,, ,0, ,,,,,,Aleppo,147,148,0,0,0,6
AAASSYR00149,"Cemetery, Qamishli",37.0665108997,41.1202342501,,OSM_Polygon,155891166,OSM_Polygon,Cemetery,,,,,,,1,,,,1,SRW001,31-Aug-2016,,,,,,2, ,,,,,,,148,149,0,0,0,3
AAASSYR00150,Gora GirbawÃ®,36.95431845,41.13880585,,OSM_Polygon,155904818,OSM_Polygon,Cemetery,,,,,,,1,,,,1,SRW001,31-Aug-2016,,,,, ,0, ,,,,,,,149,150,0,0,0,3
AAASSYR00151,"Cemetery, Qamishli (مقابر)",37.06978015,41.24033125,,OSM_Polygon,157173693,OSM_Polygon,Cemetery,,,,,,,1,,,,1,SRW001,31-Aug-2016,,,,, ,0, ,,,,,,,150,151,0,0,0,3
AAASSYR00152,Tariq ibn Ziyad Mosque (جامع طارق بن زياد),33.53634435,36.30368385,,OSM_Polygon,158192031,OSM_Polygon,Religious Site,,,,,,,1,,,,1,SRW001,31-Aug-2016,,,,, ,0, ,,,,,,,151,152,0,0,0,9
AAASSYR00153,"Old Tartus Cultural Center, Tartus",34.88739625,35.87920975,,OSM_Polygon,160450744,OSM_Polygon,Library,,,,,,,1,,,,1,SRW001,31-Aug-2016,,,,, ,0, ,,,,,,,152,153,0,0,0,6
AAASSYR00154,Tartus Cathedral of Our Lady of Tortosa and Museum,34.8917563,35.8785474,,OSM_Polygon,160475413,Penn,Museum,,,,,,,1,,,,,SRW001,31-Aug-2016,,,,, ,0, ,,,,,,,153,154,0,0,1,8
AAASSYR00155,"Alkendi Cinema, Tartus",34.89569065,35.8803396,,OSM_Polygon,160532118,OSM_Polygon,Cultural Center,,,,,,,1,,,,1,SRW001,31-Aug-2016,,,,, ,0, ,,,,,,,154,155,0,0,0,4
AAASSYR00156,"Cemetery, Robariye",37.1163554,42.0558459,,OSM_Polygon,165650790,OSM_Polygon,Cemetery,,,,,,,1,,,,1,SRW001,31-Aug-2016,,,,, ,0, ,,,,,,,155,156,0,0,0,3
AAASSYR00157,ÙƒÙ†ÙŠØ³Ø© Ø£Ù… Ø§Ù„Ø²Ù†Ø§Ø±,34.7290749,36.7201127,,OSM_Polygon,165884502,OSM_Polygon,Religious Site,,,,,,,1,,,,1,SRW001,31-Aug-2016,,,,, ,0, ,,,,,,,156,157,0,0,0,9
AAASSYR00158,"Class Mosque, Al Tabqah (مسجد الطبقة)",35.84914065,38.540506901,,OSM_Polygon,168164574,OSM_Polygon,Religious Site,,,,,,,1,,,,1,SRW001,31-Aug-2016,,,,, ,0, ,,,,,,,157,158,0,0,0,9
AAASSYR00159,"Mosque, Al-Rai",36.61028355,37.4511035,,OSM_Polygon,169834435,OSM_Polygon,Religious Site,,,,,,,1,,,,1,SRW001,31-Aug-2016,,,,, ,0, ,,,,,,,158,159,0,0,0,9
AAASSYR00160,"Cemetery, Artoz",33.41964945,36.14587835,,OSM_Polygon,170984410,OSM_Polygon,Cemetery,,,,,,,1,,,,1,SRW001,31-Aug-2016,,,,, ,0, ,,,,,,,159,160,0,0,0,3
AAASSYR00162,Al-Rahman Mosque,33.5383057,36.2187225,,OSM_Polygon,171690024,OSM_Polygon,Religious Site,,,,,,,1,,,,1,SRW001,31-Aug-2016,,,,, ,0, ,,,,,,,161,162,0,0,0,9
AAASSYR00163,Inkhel Cemetry,33.03287345,36.14813675,,OSM_Polygon,171719876,OSM_Polygon,Cemetery,,,,,,,1,,,,1,SRW001,31-Aug-2016,,,,, ,0, ,,,,,,,162,163,0,0,0,3
AAASSYR00164,"Cemetery, Al Maabadah",37.0239129,41.96146255,,OSM_Polygon,172055003,OSM_Polygon,Cemetery,,,,,,,1,,,,1,SRW001,31-Aug-2016,,,,, ,0, ,,,,,,,163,164,0,0,0,3
AAASSYR00165,Aleppo al-Sultaniyah Madrasa,36.1970415,37.16189105,,OSM_Polygon,172282693,Penn,Religious Site,,,,,,,1,,,,,SRW001,31-Aug-2016,,,,, ,0, ,,,,,,Aleppo,164,165,0,0,1,9
AAASSYR00166,"Mosque, Aleppo",36.23069475,37.1707712,,OSM_Polygon,173429934,OSM_Polygon,Religious Site,,,,,,,1,,,,1,SRW001,31-Aug-2016,,,,, ,0, ,,,,,,Aleppo,165,166,0,0,0,9
AAASSYR00167,"Great Prophect Mosque, Aleppo",36.2289388,37.097696151,,OSM_Polygon,174696355,OSM_Polygon,Religious Site,,,,,,,1,,,,1,SRW001,31-Aug-2016,,,,, ,0, ,,,,,,Aleppo,166,167,0,0,0,9
AAASSYR00168,"Mosque, Aleppo",36.2162013998,37.2095864002,,OSM_Polygon,174846471,OSM_Polygon,Religious Site,,,,,,,1,,,,1,SRW001,31-Aug-2016,,,,, ,2, ,,,,,,Aleppo,167,168,0,0,0,9
AAASSYR00169,"Cemetery Mosque, Aleppo (مسجد المقبرة)",36.2133168498,37.2177710495,,OSM_Polygon,174846474,OSM_Polygon,Religious Site,,,,,,,1,,,,1,SRW001,31-Aug-2016,,,,, ,2, ,,,,,,Aleppo,168,169,0,0,0,9
AAASSYR00170,"Omar Bin Abdul Aziz Mosque, Aleppo",36.21254995,37.14718805,,OSM_Polygon,174846481,OSM_Polygon,Religious Site,,,,,,,1,,,,1,SRW001,31-Aug-2016,,,,, ,0, ,,,,,,Aleppo,169,170,0,0,0,9
AAASSYR00171,"Mosque , Aleppo",36.2087715,37.2107883,,OSM_Polygon,174846483,OSM_Polygon,Religious Site,,,,,,,1,,,,1,SRW001,31-Aug-2016,,,,, ,0, ,,,,,,Aleppo,170,171,0,0,0,9
AAASSYR00172,Ibrahim Bin Adham Mosque (جامع ابراهيم بن الادهم),36.22148475,37.1455044,,OSM_Polygon,174846484,OSM_Polygon,Religious Site,,,,,,,1,,,,1,SRW001,31-Aug-2016,,,,, ,0, ,,,,,,,171,172,0,0,0,9
AAASSYR00173,"New Islamic Cemetery, Aleppo",36.21687205,37.2216494,,OSM_Polygon,174846485,OSM_Polygon,Cemetery,,,,,,,1,,,,1,SRW001,31-Aug-2016,,,,, ,0, ,,,,,,Aleppo,172,173,0,0,0,3
AAASSYR00175,Mosque Imam Nawawi,36.193638,37.1042023,,OSM_Polygon,174884435,OSM_Polygon,Religious Site,,,,,,,1,,,,1,SRW001,31-Aug-2016,,,,, ,0, ,,,,,,,174,175,0,0,0,9
AAASSYR00176,"Mosque, al-Salameh",36.63231945,37.0834215,,OSM_Polygon,175659759,OSM_Polygon,Religious Site,,,,,,,1,,,,1,SRW001,31-Aug-2016,,,,, ,0, ,,,,,,,175,176,0,1,0,9
AAASSYR00177,"Mosque, al-Jazmati",36.20433645,37.2002801,,OSM_Polygon,175704277,OSM_Polygon,Museum,,,,,,,1,,,,1,SRW001,31-Aug-2016,,,,, ,0, ,,,,,,,176,177,0,0,0,8
AAASSYR00178,"Mosque, al-Jazmati",36.2045833,37.19648025,,OSM_Polygon,175704279,OSM_Polygon,Museum,,,,,,,1,,,,1,SRW001,31-Aug-2016,,,,, ,0, ,,,,,,,177,178,0,0,0,8
AAASSYR00179,"Mosque, al Aziza",36.16274385,37.19237515,,OSM_Polygon,175704280,OSM_Polygon,Religious Site,,,,,,,1,,,,1,SRW001,31-Aug-2016,,,,, ,0, ,,,,,,,178,179,0,0,0,9
AAASSYR00180,"Mosque, Aleppo",36.18427285,37.2449169,,OSM_Polygon,184159586,OSM_Polygon,Religious Site,,,,,,,1,,,,1,SRW001,31-Aug-2016,,,,, ,0, ,,,,,,Aleppo,179,180,0,0,0,9
AAASSYR00181,"Mosque, Aleppo",36.1997341,37.18357485,,OSM_Polygon,184375651,OSM_Polygon,Religious Site,,,,,,,1,,,,1,SRW001,31-Aug-2016,,,,, ,0, ,,,,,,Aleppo,180,181,0,0,0,9
AAASSYR00182,"Al-Ahmad Mosque, Qudssaya",33.53815825,36.1980339,,OSM_Polygon,186360535,OSM_Polygon,Religious Site,,,,,,,1,,,,1,SRW001,31-Aug-2016,,,,, ,0, ,,,,,,,181,182,0,0,0,9
AAASSYR00183,"Al-Qudsi Mosque, Damascus",33.53390345,36.1889009,,OSM_Polygon,186360536,OSM_Polygon,Religious Site,,,,,,,1,,,,1,SRW001,31-Aug-2016,,,,, ,0, ,,,,,,Rif Dimashq,182,183,0,0,0,9
AAASSYR00184,"Al-Irfan Mosque, Qudssaya",33.54511985,36.20173975,,OSM_Polygon,186380536,OSM_Polygon,Religious Site,,,,,,,1,,,,1,SRW001,31-Aug-2016,,,,, ,0, ,,,,,,,183,184,0,0,0,9
AAASSYR00185,"Habib ibn Zayd al-Ansari Mosque, Qudssaya",33.5448082,36.1942074,,OSM_Polygon,186380537,OSM_Polygon,Religious Site,,,,,,,1,,,,1,SRW001,31-Aug-2016,,,,, ,0, ,,,,,,,184,185,0,0,0,9
AAASSYR00186,"Abdullah ibn Nasser Mosque, Qudssaya",33.5416214,36.1872931,,OSM_Polygon,192809544,OSM_Polygon,Religious Site,,,,,,,1,,,,1,SRW001,31-Aug-2016,,,,, ,0, ,,,,,,,185,186,0,0,0,9
AAASSYR00187,"Huraytan Cemetery, Hraytan",36.2853852,37.0841894,,OSM_Polygon,195235036,OSM_Polygon,Cemetery,,,,,,,1,,,,1,SRW001,31-Aug-2016,,,,, ,0, ,,,,,,,186,187,0,0,0,3
AAASSYR00188,"Cemetery, al Qamishli",36.95860545,41.19219295,,OSM_Polygon,200057533,OSM_Polygon,Cemetery,,,,,,,1,,,,1,SRW001,31-Aug-2016,,,,, ,0, ,,,,,,,187,188,0,0,0,3
AAASSYR00189,"Mosque, al Qamishli",36.19002045,37.160778301,,OSM_Polygon,203358642,OSM_Polygon,Religious Site,,,,,,,1,,,,1,SRW001,31-Aug-2016,,,,, ,0, ,,,,,,,188,189,0,0,0,9
AAASSYR00190,"Zayid ibn Haritha, Aleppo",36.1875223998,37.1685193507,,OSM_Polygon,203358643,OSM_Polygon,Religious Site,,,,,,,1,,,,1,SRW001,31-Aug-2016,,,,, ,2, ,,,,,,Aleppo,189,190,0,0,0,9
AAASSYR00191,"Mosque, Aleppo",36.1890203,37.15623965,,OSM_Polygon,203358644,OSM_Polygon,Religious Site,,,,,,,1,,,,1,SRW001,31-Aug-2016,,,,, ,0, ,,,,,,Aleppo,190,191,0,0,0,9
AAASSYR00192,"Mosque, Aleppo",36.18088285,37.16020255,,OSM_Polygon,203360430,OSM_Polygon,Religious Site,,,,,,,1,,,,1,SRW001,31-Aug-2016,,,,, ,0, ,,,,,,Aleppo,191,192,0,0,0,9
AAASSYR00193,Aleppo Maqam Ibrahim Salihin Mosque,36.18390795,37.15991575,,OSM_Polygon,203360431,Penn,Religious Site,,,,,,,1,,,,,SRW001,31-Aug-2016,,,,, ,0, ,,,,,,,192,193,0,0,1,9
AAASSYR00194,Aleppo al-Zahiriya Madrasa,36.1877626,37.1578519,,OSM_Polygon,203360433,Penn,Religious Site,,,,,,,1,,,,,SRW001,31-Aug-2016,,,,, ,0, ,,,,,,,193,194,0,0,1,9
AAASSYR00195,"Mosque, Aleppo",36.18551935,37.15829695,,OSM_Polygon,203360439,OSM_Polygon,Religious Site,,,,,,,1,,,,1,SRW001,31-Aug-2016,,,,, ,0, ,,,,,,Aleppo,194,195,0,0,0,9
AAASSYR00196,"Mosque, Karm al-Deadea",36.17487435,37.15959255,,OSM_Polygon,203366805,OSM_Polygon,Religious Site,,,,,,,1,,,,1,SRW001,31-Aug-2016,,,,, ,0, ,,,,,,,195,196,0,0,0,9
AAASSYR00197,"Museum, Aleppo",36.18723755,37.1745046,,OSM_Polygon,203370175,OSM_Polygon,Museum,,,,,,,1,,,,1,SRW001,31-Aug-2016,,,,, ,0, ,,,,,,Aleppo,196,197,0,0,0,8
AAASSYR00198,"Mosque, Aleppo",36.18655075,37.1762126,,OSM_Polygon,203370191,OSM_Polygon,Religious Site,,,,,,,1,,,,1,SRW001,31-Aug-2016,,,,, ,0, ,,,,,,Aleppo,197,198,0,0,0,9
AAASSYR00199,,36.1835348,37.1637353,,OSM_Polygon,203377180,OSM_Polygon,Religious Site,,,,,,,1,,,,1,SRW001,31-Aug-2016,,,,, ,0, ,,,,,,,198,199,0,0,0,9
AAASSYR00210,,36.17902525,37.1514691,,OSM_Polygon,203393817,OSM_Polygon,Religious Site,,,,,,,1,,,,1,SRW001,31-Aug-2016,,,,, ,0, ,,,,,,,209,210,0,0,0,9
AAASSYR00211,,36.1745363,37.153256949,,OSM_Polygon,203393819,OSM_Polygon,Religious Site,,,,,,,1,,,,1,SRW001,31-Aug-2016,,,,, ,0, ,,,,,,,210,211,0,0,0,9
AAASSYR00212,,36.18382945,37.154471,,OSM_Polygon,203393820,OSM_Polygon,Religious Site,,,,,,,1,,,,1,SRW001,31-Aug-2016,,,,, ,0, ,,,,,,,211,212,0,0,0,9
AAASSYR00216,,36.17712785,37.1379087,,OSM_Polygon,203396530,OSM_Polygon,Religious Site,,,,,,,1,,,,1,SRW001,31-Aug-2016,,,,, ,0, ,,,,,,,215,216,0,0,0,9
AAASSYR00217,,36.18056945,37.1401992,,OSM_Polygon,203396532,OSM_Polygon,Religious Site,,,,,,,1,,,,1,SRW001,31-Aug-2016,,,,, ,0, ,,,,,,,216,217,0,0,0,9
AAASSYR00220,,36.19439915,37.149548101,,OSM_Polygon,203435697,OSM_Polygon,Religious Site,,,,,,,1,,,,1,SRW001,31-Aug-2016,,,,, ,0, ,,,,,,,219,220,0,0,0,9
AAASSYR00221,,36.1911986,37.14890775,,OSM_Polygon,203435702,OSM_Polygon,Religious Site,,,,,,,1,,,,1,SRW001,31-Aug-2016,,,,, ,0, ,,,,,,,220,221,0,0,0,9
AAASSYR00242,"Aleppo Archaeological Museum, Aleppo",36.20193175,37.14992555,,OSM_Polygon,203497067,OSM_Polygon,Religious Site,,,,,,,1,,,,1,SRW001,31-Aug-2016,,,,, ,0, ,,,,,,Aleppo,241,242,0,0,0,9
AAASSYR00255,,36.22647595,37.1258906,,OSM_Polygon,203521860,OSM_Polygon,Religious Site,,,,,,,1,,,,1,SRW001,31-Aug-2016,,,,, ,0, ,,,,,,,254,255,0,0,0,9
AAASSYR00268,Ø¬Ø§Ù…Ø¹ Ø§Ù„Ø®ÙŠØ±Ø§Øª,36.2207684,37.1871738,,OSM_Polygon,203599526,OSM_Polygon,Religious Site,,,,,,,1,,,,1,SRW001,31-Aug-2016,,,,, ,0, ,,,,,,,267,268,0,0,0,9
AAASSYR00269, ,36.2181663,37.18408325,,OSM_Polygon,203599532,OSM_Polygon,Religious Site,,,,,,,1,,,,1,SRW001,31-Aug-2016,,,,, ,0, ,,,,,,,268,269,0,0,0,9
AAASSYR00271, ,36.2217574,37.17967925,,OSM_Polygon,203599538,OSM_Polygon,Religious Site,,,,,,,1,,,,1,SRW001,31-Aug-2016,,,,, ,0, ,,,,,,,270,271,0,0,0,9
AAASSYR00274, ,36.2138792,37.19799495,,OSM_Polygon,203610544,OSM_Polygon,Religious Site,,,,,,,1,,,,1,SRW001,31-Aug-2016,,,,, ,0, ,,,,,,,273,274,0,0,0,9
AAASSYR00275,"Sultan Mosque, Aleppo",36.19480165,37.18454245,,OSM_Polygon,203617349,OSM_Polygon,Religious Site,,,,,,,1,,,,1,SRW001,31-Aug-2016,,,,, ,0, ,,,,,,Aleppo,274,275,0,0,0,9
AAASSYR00279,Ø¬Ø§Ù…Ø¹ Ø£Ø¨Ø§ Ø§Ù„Ù‚Ø§Ø³Ù…,36.1996623,37.1887268,,OSM_Polygon,203617368,OSM_Polygon,Religious Site,,,,,,,1,,,,1,SRW001,31-Aug-2016,,,,, ,0, ,,,,,,,278,279,0,0,0,9
AAASSYR00288,Ø¬Ø§Ù…Ø¹ Ø®Ø§Ù„Ø¯ Ø¨Ù† Ø§Ù„ÙˆÙ„ÙŠØ¯,36.1753623,37.125687801,,OSM_Polygon,203625206,OSM_Polygon,Religious Site,,,,,,,1,,,,1,SRW001,31-Aug-2016,,,,, ,0, ,,,,,,,287,288,0,0,0,9
AAASSYR00298, ,36.1784314,37.1056192,,OSM_Polygon,203631818,OSM_Polygon,Religious Site,,,,,,,1,,,,1,SRW001,31-Aug-2016,,,,, ,0, ,,,,,,,297,298,0,0,0,9
AAASSYR00304, ,36.20976425,37.09570545,,OSM_Polygon,203649340,OSM_Polygon,Religious Site,,,,,,,1,,,,1,SRW001,31-Aug-2016,,,,, ,0, ,,,,,,,303,304,0,0,0,9
AAASSYR00319,,36.23430755,37.13637815,,OSM_Polygon,203656589,OSM_Polygon,Religious Site,,,,,,,1,,,,1,SRW001,31-Aug-2016,,,,, ,0, ,,,,,,,318,319,0,0,0,9
AAASSYR00322,,36.23780635,37.15965035,,OSM_Polygon,203688843,OSM_Polygon,Religious Site,,,,,,,1,,,,1,SRW001,31-Aug-2016,,,,, ,0, ,,,,,,,321,322,0,0,0,9
AAASSYR00324, ,36.234733,37.15961995,,OSM_Polygon,203688846,OSM_Polygon,Religious Site,,,,,,,1,,,,1,SRW001,31-Aug-2016,,,,, ,0, ,,,,,,,323,324,0,0,0,9
AAASSYR00342,Aleppo Mosque Nour Eddin,36.20492185,37.16212985,,OSM_Polygon,203752744,Penn,Religious Site,,,,,,,1,,,,,SRW001,31-Aug-2016,,,,, ,0, ,,,,,,,341,342,0,0,1,9
AAASSYR00343,Aleppo Mosque al-Toubeh,36.1936215,37.1663127,,OSM_Polygon,203752747,Penn,Religious Site,,,,,,,1,,,,,SRW001,31-Aug-2016,,,,, ,0, ,,,,,,,342,343,0,0,2,9
AAASSYR00344,Ø£ÙˆÙŠØ³ Ø§Ù„Ù‚Ø±Ù†ÙŠ,36.1755467,37.14411895,,OSM_Polygon,203762130,OSM_Polygon,Religious Site,,,,,,,1,,,,1,SRW001,31-Aug-2016,,,,, ,0, ,,,,,,,343,344,0,0,0,9
AAASSYR00369, ,34.73532045,36.71942315,,OSM_Polygon,203921373,OSM_Polygon,Religious Site,,,,,,,1,,,,1,SRW001,31-Aug-2016,,,,, ,0, ,,,,,,,368,369,0,0,0,9
AAASSYR00384,جامع القواص,34.74521535,36.69143195,,OSM_Polygon,203971320,OSM_Polygon,Religious Site,,,,,,,1,,,,1,SRW001,31-Aug-2016,,,,, ,0, ,,,,,,,383,384,0,1,0,9
AAASSYR00385,,34.76437855,36.7569981,,OSM_Polygon,203976854,OSM_Polygon,Religious Site,,,,,,,1,,,,1,SRW001,31-Aug-2016,,,,, ,0, ,,,,,,,384,385,0,0,0,9
AAASSYR00401, ,33.4870997,36.28730285,,OSM_Polygon,204137576,OSM_Polygon,Religious Site,,,,,,,1,,,,1,SRW001,31-Aug-2016,,,,, ,0, ,,,,,,,400,401,0,0,0,9
AAASSYR00402,"Mosque, Damascus (جامع القيسري)",33.4834516,36.2968229,,OSM_Polygon,204137585,OSM_Polygon,Religious Site,,,,,,,1,,,,1,SRW001,31-Aug-2016,,,,, ,0, ,,,,,,Rif Dimashq,401,402,0,0,0,9
AAASSYR00403,"Sufyan Al Thawri Mosque, Damascus",33.48062225,36.2954873,,OSM_Polygon,204137588,OSM_Polygon,Religious Site,,,,,,,1,,,,1,SRW001,31-Aug-2016,,,,, ,0, ,,,,,,Rif Dimashq,402,403,0,0,0,9
AAASSYR00404,"Mosque of Abu Musa al-Ash'ari, Damascus",33.4752948,36.27835,,OSM_Polygon,204144614,OSM_Polygon,Religious Site,,,,,,,1,,,,1,SRW001,31-Aug-2016,,,,, ,0, ,,,,,,Rif Dimashq,403,404,0,0,0,9
AAASSYR00405,"Golden Mosque, Damascus",33.50283935,36.2976591,,OSM_Polygon,204146648,OSM_Polygon,Religious Site,,,,,,,1,,,,1,SRW001,31-Aug-2016,,,,, ,0, ,,,,,,Rif Dimashq,404,405,0,0,0,9
AAASSYR00406,"Uthman Ibn Affan Mosque, Damascus",33.5033951,36.277607,,OSM_Polygon,204164748,OSM_Polygon,Religious Site,,,,,,,1,,,,1,SRW001,31-Aug-2016,,,,, ,0, ,,,,,,Rif Dimashq,405,406,0,0,0,9
